{
	"type": "FeatureCollection",
	"features": [
		{
			"type": "Feature",
			"geometry": {
				"type": "Point",
				"coordinates": [-118.34433, 33.956379]
			},
			"properties": {
				"title": "ACABA, Joseph M.",
				"date": "1967-05-17",
				"birthplace": "Inglewood, California",
				"data": "https://github.com/cosmos-book/cosmos-book.github.io/tree/master/human-spaceflight/data/ACABA_JM.md",
				"marker-size": "medium",
				"marker-color": "#00a2d3",
				"marker-symbol": "circle"
			}
		},{
			"type": "Feature",
			"geometry": {
				"type": "Point",
				"coordinates": [-109.4291, 47.063831]
			},
			"properties": {
				"title": "ACTON, Loren W.",
				"date": "1936-03-07",
				"birthplace": "Lewistown, Montana",
				"data": "https://github.com/cosmos-book/cosmos-book.github.io/tree/master/human-spaceflight/data/ACTON_LW.md",
				"marker-size": "medium",
				"marker-color": "#00a2d3",
				"marker-symbol": "circle"
			}
		},{
			"type": "Feature",
			"geometry": {
				"type": "Point",
				"coordinates": [-78.141403, 42.742802]
			},
			"properties": {
				"title": "ADAMSON, James C.",
				"date": "1946-03-03",
				"birthplace": "Warsaw, New York",
				"data": "https://github.com/cosmos-book/cosmos-book.github.io/tree/master/human-spaceflight/data/ADAMSON_JC.md",
				"marker-size": "medium",
				"marker-color": "#00a2d3",
				"marker-symbol": "circle"
			}
		},{
			"type": "Feature",
			"geometry": {
				"type": "Point",
				"coordinates": [34.348351, 53.2733]
			},
			"properties": {
				"title": "AFANASYEV, Viktor Mikhailovich",
				"date": "1948-12-31",
				"birthplace": "Bryansk, Russian SFSR",
				"data": "https://github.com/cosmos-book/cosmos-book.github.io/tree/master/human-spaceflight/data/AFANASYEV_VM.md",
				"marker-size": "medium",
				"marker-color": "#f04031",
				"marker-symbol": "circle"
			}
		},{
			"type": "Feature",
			"geometry": {
				"type": "Point",
				"coordinates": [66.90229, 47.999249]
			},
			"properties": {
				"title": "AIMBETOV, Aidyn Akanovich",
				"date": "1972-07-27",
				"birthplace": "Kolkhoz, Kazakhstan",
				"data": "https://github.com/cosmos-book/cosmos-book.github.io/tree/master/human-spaceflight/data/AIMETOV_AA.md",
				"marker-size": "medium",
				"marker-color": "#67c18d",
				"marker-symbol": "circle"
			}
		},{
			"type": "Feature",
			"geometry": {
				"type": "Point",
				"coordinates": [-90.199501, 38.627701]
			},
			"properties": {
				"title": "AKERS, Thomas D.",
				"date": "1951-05-20",
				"birthplace": "St. Louis, Missouri",
				"data": "https://github.com/cosmos-book/cosmos-book.github.io/tree/master/human-spaceflight/data/AKERS_TD.md",
				"marker-size": "medium",
				"marker-color": "#00a2d3",
				"marker-symbol": "circle"
			}
		},{
			"type": "Feature",
			"geometry": {
				"type": "Point",
				"coordinates": [139.740921, 35.670479]
			},
			"properties": {
				"title": "AKIYAMA, Toyohiro",
				"date": "1942-07-22",
				"birthplace": "Tokyo, Japan",
				"data": "https://github.com/cosmos-book/cosmos-book.github.io/tree/master/human-spaceflight/data/AKIYAMA_T.md",
				"marker-size": "medium",
				"marker-color": "#67c18d",
				"marker-symbol": "circle"
			}
		},{
			"type": "Feature",
			"geometry": {
				"type": "Point",
				"coordinates": [40.677101, 54.335999]
			},
			"properties": {
				"title": "AKSYONOV, Vladimir Viktorovich",
				"date": "1935-02-01",
				"birthplace": "Giblitsy, Kasimovsky District, Ryazan Oblast, Russian SFSR",
				"data": "https://github.com/cosmos-book/cosmos-book.github.io/tree/master/human-spaceflight/data/AKSYONOV_VV.md",
				"marker-size": "medium",
				"marker-color": "#f04031",
				"marker-symbol": "circle"
			}
		},{
			"type": "Feature",
			"geometry": {
				"type": "Point",
				"coordinates": [46.714581, 24.64732]
			},
			"properties": {
				"title": "AL-SAUD, Sultan bin Salman bin Abdulaziz",
				"date": "1956-06-27",
				"birthplace": "Riyadh, Saudi Arabia",
				"data": "https://github.com/cosmos-book/cosmos-book.github.io/tree/master/human-spaceflight/data/AL-SAUD_SSA.md",
				"marker-size": "medium",
				"marker-color": "#67c18d",
				"marker-symbol": "circle"
			}
		},{
			"type": "Feature",
			"geometry": {
				"type": "Point",
				"coordinates": [-74.216103, 40.817402]
			},
			"properties": {
				"title": "ALDRIN, Edwin 'Buzz'",
				"date": "1930-01-20",
				"birthplace": "Montclair, New Jersey",
				"data": "https://github.com/cosmos-book/cosmos-book.github.io/tree/master/human-spaceflight/data/ALDRIN_B.md",
				"marker-size": "medium",
				"marker-color": "#00a2d3",
				"marker-symbol": "circle"
			}
		},{
			"type": "Feature",
			"geometry": {
				"type": "Point",
				"coordinates": [37.605061, 55.741638]
			},
			"properties": {
				"title": "ALEKSANDROV, Aleksandr Pavlovich",
				"date": "1943-02-20",
				"birthplace": "Moscow, Soviet Union",
				"data": "https://github.com/cosmos-book/cosmos-book.github.io/tree/master/human-spaceflight/data/ALEKSANDROV_AP.md",
				"marker-size": "medium",
				"marker-color": "#f04031",
				"marker-symbol": "circle"
			}
		},{
			"type": "Feature",
			"geometry": {
				"type": "Point",
				"coordinates": [26.421789, 43.11647]
			},
			"properties": {
				"title": "ALEKSANDROV, Aleksandr Panayatov 'Sasha'",
				"date": "1951-12-01",
				"birthplace": "Omurtag, Bulgaria",
				"data": "https://github.com/cosmos-book/cosmos-book.github.io/tree/master/human-spaceflight/data/ALEKSANDROV_APS.md",
				"marker-size": "medium",
				"marker-color": "#67c18d",
				"marker-symbol": "circle"
			}
		},{
			"type": "Feature",
			"geometry": {
				"type": "Point",
				"coordinates": [-75.133957, 40.007629]
			},
			"properties": {
				"title": "ALLEN, Andrew M.",
				"date": "1955-08-04",
				"birthplace": "Philadelphia, Pennsylvania",
				"data": "https://github.com/cosmos-book/cosmos-book.github.io/tree/master/human-spaceflight/data/ALLEN_AM.md",
				"marker-size": "medium",
				"marker-color": "#00a2d3",
				"marker-symbol": "circle"
			}
		},{
			"type": "Feature",
			"geometry": {
				"type": "Point",
				"coordinates": [-86.896339, 40.04388]
			},
			"properties": {
				"title": "ALLEN, Joseph P.",
				"date": "1937-06-27",
				"birthplace": "Crawfordsville, Indiana",
				"data": "https://github.com/cosmos-book/cosmos-book.github.io/tree/master/human-spaceflight/data/ALLEN_JP.md",
				"marker-size": "medium",
				"marker-color": "#00a2d3",
				"marker-symbol": "circle"
			}
		},{
			"type": "Feature",
			"geometry": {
				"type": "Point",
				"coordinates": [-89.357559, 40.151821]
			},
			"properties": {
				"title": "ALTMAN, Scott D.",
				"date": "1959-08-15",
				"birthplace": "Lincoln, Illinois",
				"data": "https://github.com/cosmos-book/cosmos-book.github.io/tree/master/human-spaceflight/data/ALTMAN_SD.md",
				"marker-size": "medium",
				"marker-color": "#00a2d3",
				"marker-symbol": "circle"
			}
		},{
			"type": "Feature",
			"geometry": {
				"type": "Point",
				"coordinates": [-96.03553, 41.263561]
			},
			"properties": {
				"title": "ANDERSON, Clayton C.",
				"date": "1959-02-23",
				"birthplace": "Omaha, Nebraska",
				"data": "https://github.com/cosmos-book/cosmos-book.github.io/tree/master/human-spaceflight/data/ANDERSON_CC.md",
				"marker-size": "medium",
				"marker-color": "#00a2d3",
				"marker-symbol": "circle"
			}
		},{
			"type": "Feature",
			"geometry": {
				"type": "Point",
				"coordinates": [-73.456703, 44.696098]
			},
			"properties": {
				"title": "ANDERSON, Michael P.",
				"date": "1959-12-25",
				"birthplace": "Plattsburgh, New York",
				"data": "https://github.com/cosmos-book/cosmos-book.github.io/tree/master/human-spaceflight/data/ANDERSON_MP.md",
				"marker-size": "medium",
				"marker-color": "#00a2d3",
				"marker-symbol": "circle"
			}
		},{
			"type": "Feature",
			"geometry": {
				"type": "Point",
				"coordinates": [114.153999, 22.4112]
			},
			"properties": {
				"title": "ANDERS, William A.",
				"date": "1933-10-17",
				"birthplace": "Hong Kong",
				"data": "https://github.com/cosmos-book/cosmos-book.github.io/tree/master/human-spaceflight/data/ANDERS_WA.md",
				"marker-size": "medium",
				"marker-color": "#00a2d3",
				"marker-symbol": "circle"
			}
		},{
			"type": "Feature",
			"geometry": {
				"type": "Point",
				"coordinates": [59.596851, 36.290058]
			},
			"properties": {
				"title": "ANSARI, Anousheh",
				"date": "1966-09-22",
				"birthplace": "Mashhad, Iran",
				"data": "https://github.com/cosmos-book/cosmos-book.github.io/tree/master/human-spaceflight/data/ANSARI_A.md",
				"marker-size": "medium",
				"marker-color": "#7c52a1",
				"marker-symbol": "circle"
			}
		},{
			"type": "Feature",
			"geometry": {
				"type": "Point",
				"coordinates": [-83.04792, 42.33168]
			},
			"properties": {
				"title": "ANTONELLI, Dominic",
				"date": "1967-08-23",
				"birthplace": "Detroit, Michigan",
				"data": "https://github.com/cosmos-book/cosmos-book.github.io/tree/master/human-spaceflight/data/ANTONELLI_D.md",
				"marker-size": "medium",
				"marker-color": "#00a2d3",
				"marker-symbol": "circle"
			}
		},{
			"type": "Feature",
			"geometry": {
				"type": "Point",
				"coordinates": [-72.589287, 42.10125]
			},
			"properties": {
				"title": "APT, Jerome",
				"date": "1949-04-18",
				"birthplace": "Springfield, Massachusetts",
				"data": "https://github.com/cosmos-book/cosmos-book.github.io/tree/master/human-spaceflight/data/APT_J.md",
				"marker-size": "medium",
				"marker-color": "#00a2d3",
				"marker-symbol": "circle"
			}
		},{
			"type": "Feature",
			"geometry": {
				"type": "Point",
				"coordinates": [-87.789932, 41.887161]
			},
			"properties": {
				"title": "ARCHAMBAULT, Lee J.",
				"date": "1960-08-25",
				"birthplace": "Oak Park, Illinois",
				"data": "https://github.com/cosmos-book/cosmos-book.github.io/tree/master/human-spaceflight/data/ARCHAMBAULT_LJ.md",
				"marker-size": "medium",
				"marker-color": "#00a2d3",
				"marker-symbol": "circle"
			}
		},{
			"type": "Feature",
			"geometry": {
				"type": "Point",
				"coordinates": [-84.190742, 40.568119]
			},
			"properties": {
				"title": "ARMSTRONG, Neil A.",
				"date": "1930-08-05",
				"birthplace": "Wapakoneta, Ohio",
				"data": "https://github.com/cosmos-book/cosmos-book.github.io/tree/master/human-spaceflight/data/ARMSTRONG_NA.md",
				"marker-size": "medium",
				"marker-color": "#00a2d3",
				"marker-symbol": "circle"
			}
		},{
			"type": "Feature",
			"geometry": {
				"type": "Point",
				"coordinates": [-76.913857, 38.925529]
			},
			"properties": {
				"title": "ARNOLD, Richard R., II",
				"date": "1963-11-26",
				"birthplace": "Cheverly, Maryland",
				"data": "https://github.com/cosmos-book/cosmos-book.github.io/tree/master/human-spaceflight/data/ARNOLD_RRII.md",
				"marker-size": "medium",
				"marker-color": "#00a2d3",
				"marker-symbol": "circle"
			}
		},{
			"type": "Feature",
			"geometry": {
				"type": "Point",
				"coordinates": [24.114901, 56.945999]
			},
			"properties": {
				"title": "ARTEMYEV, Oleg Germanovich",
				"date": "1970-12-28",
				"birthplace": "Riga, Latvia",
				"data": "https://github.com/cosmos-book/cosmos-book.github.io/tree/master/human-spaceflight/data/ARTEMYEV_OG.md",
				"marker-size": "medium",
				"marker-color": "#f04031",
				"marker-symbol": "circle"
			}
		},{
			"type": "Feature",
			"geometry": {
				"type": "Point",
				"coordinates": [36.37513, 48.122581]
			},
			"properties": {
				"title": "ARTSEBARSKY, Anatoli Pavlovich",
				"date": "1956-09-09",
				"birthplace": "Prosyanaya, Ukrainian SSR",
				"data": "https://github.com/cosmos-book/cosmos-book.github.io/tree/master/human-spaceflight/data/ARTSEBARSKY_AP.md",
				"marker-size": "medium",
				"marker-color": "#f04031",
				"marker-symbol": "circle"
			}
		},{
			"type": "Feature",
			"geometry": {
				"type": "Point",
				"coordinates": [36.663528, 56.328011]
			},
			"properties": {
				"title": "ARTYUKHIN, Yuri Petrovich",
				"date": "1930-06-22",
				"birthplace": "Pershutino, Moscow Oblast, Russia",
				"data": "https://github.com/cosmos-book/cosmos-book.github.io/tree/master/human-spaceflight/data/ARTYUKHIN_YP.md",
				"marker-size": "medium",
				"marker-color": "#f04031",
				"marker-symbol": "circle"
			}
		},{
			"type": "Feature",
			"geometry": {
				"type": "Point",
				"coordinates": [-96.79586, 32.78183]
			},
			"properties": {
				"title": "ASHBY, Jeffrey S.",
				"date": "1954-06-16",
				"birthplace": "Dallas, Texas",
				"data": "https://github.com/cosmos-book/cosmos-book.github.io/tree/master/human-spaceflight/data/ASHBY_JS.md",
				"marker-size": "medium",
				"marker-color": "#00a2d3",
				"marker-symbol": "circle"
			}
		},{
			"type": "Feature",
			"geometry": {
				"type": "Point",
				"coordinates": [55.794559, 44.957489]
			},
			"properties": {
				"title": "ATKOV, Oleg Yuriyevich",
				"date": "1949-05-09",
				"birthplace": "Khvorostyanka, USSR",
				"data": "https://github.com/cosmos-book/cosmos-book.github.io/tree/master/human-spaceflight/data/ATKOV_OY.md",
				"marker-size": "medium",
				"marker-color": "#f04031",
				"marker-symbol": "circle"
			}
		},{
			"type": "Feature",
			"geometry": {
				"type": "Point",
				"coordinates": [73.202629, 49.879211]
			},
			"properties": {
				"title": "AUBAKIROV, Toktar Ongarbayevich",
				"date": "1946-07-27",
				"birthplace": "Karaganda, Kazakhstan",
				"data": "https://github.com/cosmos-book/cosmos-book.github.io/tree/master/human-spaceflight/data/AUBAKIROV_TO.md",
				"marker-size": "medium",
				"marker-color": "#f04031",
				"marker-symbol": "circle"
			}
		},{
			"type": "Feature",
			"geometry": {
				"type": "Point",
				"coordinates": [-86.149963, 39.766911]
			},
			"properties": {
				"title": "AU&Ntilde;&Oacute;N-CHANCELLOR, Serena M.",
				"date": "1976-04-09",
				"birthplace": "Indianapolis, Indiana",
				"data": "https://github.com/cosmos-book/cosmos-book.github.io/tree/master/human-spaceflight/data/AUNON_SM.md",
				"marker-size": "medium",
				"marker-color": "#00a2d3",
				"marker-symbol": "circle"
			}
		},{
			"type": "Feature",
			"geometry": {
				"type": "Point",
				"coordinates": [49.703369, 52.983971]
			},
			"properties": {
				"title": "AVDEYEV, Sergei Vasiliyevich",
				"date": "1956-01-01",
				"birthplace": "Chapayevsk, Russia",
				"data": "https://github.com/cosmos-book/cosmos-book.github.io/tree/master/human-spaceflight/data/AVDEYEV_SV.md",
				"marker-size": "medium",
				"marker-color": "#f04031",
				"marker-symbol": "circle"
			}
		},{
			"type": "Feature",
			"geometry": {
				"type": "Point",
				"coordinates": [-75.133957, 40.007629]
			},
			"properties": {
				"title": "BAGIAN, James P.",
				"date": "1952-02-22",
				"birthplace": "Philadelphia, Pennsylvania",
				"data": "https://github.com/cosmos-book/cosmos-book.github.io/tree/master/human-spaceflight/data/BAGIAN_JP.md",
				"marker-size": "medium",
				"marker-color": "#00a2d3",
				"marker-symbol": "circle"
			}
		},{
			"type": "Feature",
			"geometry": {
				"type": "Point",
				"coordinates": [-78.954002, 35.061619]
			},
			"properties": {
				"title": "BAKER, Ellen S. (M.D.)",
				"date": "1953-04-27",
				"birthplace": "Fayetteville, North Carolina",
				"data": "https://github.com/cosmos-book/cosmos-book.github.io/tree/master/human-spaceflight/data/BAKER_ES.md",
				"marker-size": "medium",
				"marker-color": "#00a2d3",
				"marker-symbol": "circle"
			}
		},{
			"type": "Feature",
			"geometry": {
				"type": "Point",
				"coordinates": [-90.04892, 35.149681]
			},
			"properties": {
				"title": "BAKER, Michael A.",
				"date": "1953-10-27",
				"birthplace": "Memphis, Tennessee",
				"data": "https://github.com/cosmos-book/cosmos-book.github.io/tree/master/human-spaceflight/data/BAKER_MA.md",
				"marker-size": "medium",
				"marker-color": "#00a2d3",
				"marker-symbol": "circle"
			}
		},{
			"type": "Feature",
			"geometry": {
				"type": "Point",
				"coordinates": [38.9235, 55.608398]
			},
			"properties": {
				"title": "BALANDIN, Aleksandr Nikolayevich",
				"date": "1953-07-30",
				"birthplace": "Moscow Oblast, Russian SFSR",
				"data": "https://github.com/cosmos-book/cosmos-book.github.io/tree/master/human-spaceflight/data/BALANDIN_AN.md",
				"marker-size": "medium",
				"marker-color": "#f04031",
				"marker-symbol": "circle"
			}
		},{
			"type": "Feature",
			"geometry": {
				"type": "Point",
				"coordinates": [-122.593536, 45.63398]
			},
			"properties": {
				"title": "BARRATT, Michael R.",
				"date": "1959-04-16",
				"birthplace": "Vancouver, Washington",
				"data": "https://github.com/cosmos-book/cosmos-book.github.io/tree/master/human-spaceflight/data/BARRATT_MR.md",
				"marker-size": "medium",
				"marker-color": "#00a2d3",
				"marker-symbol": "circle"
			}
		},{
			"type": "Feature",
			"geometry": {
				"type": "Point",
				"coordinates": [-73.407654, 41.113659]
			},
			"properties": {
				"title": "BARRY, Daniel T. (M.D.)",
				"date": "1953-12-30",
				"birthplace": "Norwalk, Connecticut",
				"data": "https://github.com/cosmos-book/cosmos-book.github.io/tree/master/human-spaceflight/data/BARRY_DT.md",
				"marker-size": "medium",
				"marker-color": "#00a2d3",
				"marker-symbol": "circle"
			}
		},{
			"type": "Feature",
			"geometry": {
				"type": "Point",
				"coordinates": [-75.114899, 40.109901]
			},
			"properties": {
				"title": "BARTOE, John-David F.",
				"date": "1944-11-17",
				"birthplace": "Abington, Pennsylvania",
				"data": "https://github.com/cosmos-book/cosmos-book.github.io/tree/master/human-spaceflight/data/BARTOE_J-DF.md",
				"marker-size": "medium",
				"marker-color": "#00a2d3",
				"marker-symbol": "circle"
			}
		},{
			"type": "Feature",
			"geometry": {
				"type": "Point",
				"coordinates": [37.605061, 55.741638]
			},
			"properties": {
				"title": "BATURIN, Yuri Mikhailovich",
				"date": "1949-06-12",
				"birthplace": "Moscow, Soviet Union",
				"data": "https://github.com/cosmos-book/cosmos-book.github.io/tree/master/human-spaceflight/data/BATURIN_YM.md",
				"marker-size": "medium",
				"marker-color": "#f04031",
				"marker-symbol": "circle"
			}
		},{
			"type": "Feature",
			"geometry": {
				"type": "Point",
				"coordinates": [9.70637, 4.04748]
			},
			"properties": {
				"title": "BAUDRY, Patrick Pierre Roger",
				"date": "1946-03-06",
				"birthplace": "Douala, French Cameroons",
				"data": "https://github.com/cosmos-book/cosmos-book.github.io/tree/master/human-spaceflight/data/BAUDRY_PPR.md",
				"marker-size": "medium",
				"marker-color": "#67c18d",
				"marker-symbol": "circle"
			}
		},{
			"type": "Feature",
			"geometry": {
				"type": "Point",
				"coordinates": [-100.275238, 35.44109]
			},
			"properties": {
				"title": "BEAN, Alan L.",
				"date": "1932-03-15",
				"birthplace": "Wheeler, Texas",
				"data": "https://github.com/cosmos-book/cosmos-book.github.io/tree/master/human-spaceflight/data/BEAN_AL.md",
				"marker-size": "medium",
				"marker-color": "#00a2d3",
				"marker-symbol": "circle"
			}
		},{
			"type": "Feature",
			"geometry": {
				"type": "Point",
				"coordinates": [-90.443069, 38.662071]
			},
			"properties": {
				"title": "BEHNKEN, Robert L., (Ph.D.)",
				"date": "1970-07-28",
				"birthplace": "Creve Coeur, Missouri",
				"data": "https://github.com/cosmos-book/cosmos-book.github.io/tree/master/human-spaceflight/data/BEHNKEN_RL.md",
				"marker-size": "medium",
				"marker-color": "#00a2d3",
				"marker-symbol": "circle"
			}
		},{
			"type": "Feature",
			"geometry": {
				"type": "Point",
				"coordinates": [19.642151, 48.802212]
			},
			"properties": {
				"title": "BELLA, Ivan",
				"date": "1964-05-25",
				"birthplace": "Brezno, Czechoslovakia ",
				"data": "https://github.com/cosmos-book/cosmos-book.github.io/tree/master/human-spaceflight/data/BELLA_I.md",
				"marker-size": "medium",
				"marker-color": "#67c18d",
				"marker-symbol": "circle"
			}
		},{
			"type": "Feature",
			"geometry": {
				"type": "Point",
				"coordinates": [55.794559, 44.957489]
			},
			"properties": {
				"title": "BELYAYEV, Pavel Ivanovich",
				"date": "1925-06-26",
				"birthplace": "Chelishchevo, Soviet Union",
				"data": "https://github.com/cosmos-book/cosmos-book.github.io/tree/master/human-spaceflight/data/BELYAYEV_PI.md",
				"marker-size": "medium",
				"marker-color": "#f04031",
				"marker-symbol": "circle"
			}
		},{
			"type": "Feature",
			"geometry": {
				"type": "Point",
				"coordinates": [55.794559, 44.957489]
			},
			"properties": {
				"title": "BEREGOVOY, Georgi Timofeyevich",
				"date": "1921-04-15",
				"birthplace": "Fedorivka, Poltava Oblast, Soviet Union",
				"data": "https://github.com/cosmos-book/cosmos-book.github.io/tree/master/human-spaceflight/data/BEREGOVOY_GT.md",
				"marker-size": "medium",
				"marker-color": "#f04031",
				"marker-symbol": "circle"
			}
		},{
			"type": "Feature",
			"geometry": {
				"type": "Point",
				"coordinates": [55.794559, 44.957489]
			},
			"properties": {
				"title": "BEREZOVOY, Anatoli Nikolayevich",
				"date": "1942-04-11",
				"birthplace": "Enem, RSFSR, USSR",
				"data": "https://github.com/cosmos-book/cosmos-book.github.io/tree/master/human-spaceflight/data/BEREZOVOY_AN.md",
				"marker-size": "medium",
				"marker-color": "#f04031",
				"marker-symbol": "circle"
			}
		},{
			"type": "Feature",
			"geometry": {
				"type": "Point",
				"coordinates": [-86.91362, 40.45573]
			},
			"properties": {
				"title": "BINNIE, Brian",
				"date": "1953",
				"birthplace": "West Lafayette, Indiana",
				"data": "https://github.com/cosmos-book/cosmos-book.github.io/tree/master/human-spaceflight/data/BINNIE_B.md",
				"marker-size": "medium",
				"marker-color": "#7c52a1",
				"marker-symbol": "circle"
			}
		},{
			"type": "Feature",
			"geometry": {
				"type": "Point",
				"coordinates": [-98.521606, 29.460711]
			},
			"properties": {
				"title": "BLAHA, John E.",
				"date": "1942-08-26",
				"birthplace": "San Antonio, Texas",
				"data": "https://github.com/cosmos-book/cosmos-book.github.io/tree/master/human-spaceflight/data/BLAHA_JE.md",
				"marker-size": "medium",
				"marker-color": "#00a2d3",
				"marker-symbol": "circle"
			}
		},{
			"type": "Feature",
			"geometry": {
				"type": "Point",
				"coordinates": [-83.7826, 43.00259]
			},
			"properties": {
				"title": "BLOOMFIELD, Michael J.",
				"date": "1959-03-16",
				"birthplace": "Flint, Michigan",
				"data": "https://github.com/cosmos-book/cosmos-book.github.io/tree/master/human-spaceflight/data/BLOOMFIELD_MJ.md",
				"marker-size": "medium",
				"marker-color": "#00a2d3",
				"marker-symbol": "circle"
			}
		},{
			"type": "Feature",
			"geometry": {
				"type": "Point",
				"coordinates": [-75.133957, 40.007629]
			},
			"properties": {
				"title": "BLUFORD, Guion S., Jr",
				"date": "1942-11-22",
				"birthplace": "Philadelphia, Pennsylvania",
				"data": "https://github.com/cosmos-book/cosmos-book.github.io/tree/master/human-spaceflight/data/BLUFORD_GSJ.md",
				"marker-size": "medium",
				"marker-color": "#00a2d3",
				"marker-symbol": "circle"
			}
		},{
			"type": "Feature",
			"geometry": {
				"type": "Point",
				"coordinates": [-74.007118, 40.71455]
			},
			"properties": {
				"title": "BOBKO, Karol J.",
				"date": "1937-12-23",
				"birthplace": "New York, New York",
				"data": "https://github.com/cosmos-book/cosmos-book.github.io/tree/master/human-spaceflight/data/BOBKO_KJ.md",
				"marker-size": "medium",
				"marker-color": "#00a2d3",
				"marker-symbol": "circle"
			}
		},{
			"type": "Feature",
			"geometry": {
				"type": "Point",
				"coordinates": [-80.221748, 25.782551]
			},
			"properties": {
				"title": "BOE, Eric A.",
				"date": "1964-10-01",
				"birthplace": "Miami, Florida",
				"data": "https://github.com/cosmos-book/cosmos-book.github.io/tree/master/human-spaceflight/data/BOE_EA.md",
				"marker-size": "medium",
				"marker-color": "#00a2d3",
				"marker-symbol": "circle"
			}
		},{
			"type": "Feature",
			"geometry": {
				"type": "Point",
				"coordinates": [-81.04525, 33.99855]
			},
			"properties": {
				"title": "BOLDEN, Charles F., Jr.",
				"date": "1946-08-19",
				"birthplace": "Columbia, South Carolina",
				"data": "https://github.com/cosmos-book/cosmos-book.github.io/tree/master/human-spaceflight/data/BOLDEN_CFJ.md",
				"marker-size": "medium",
				"marker-color": "#00a2d3",
				"marker-symbol": "circle"
			}
		},{
			"type": "Feature",
			"geometry": {
				"type": "Point",
				"coordinates": [-84.33062, 46.536819]
			},
			"properties": {
				"title": "BONDAR, Roberta Lynn",
				"date": "1945-12-04",
				"birthplace": "Sault Ste. Marie, Ontario, Canada",
				"data": "https://github.com/cosmos-book/cosmos-book.github.io/tree/master/human-spaceflight/data/BONDAR_RL.md",
				"marker-size": "medium",
				"marker-color": "#67c18d",
				"marker-symbol": "circle"
			}
		},{
			"type": "Feature",
			"geometry": {
				"type": "Point",
				"coordinates": [30.22241, 59.922329]
			},
			"properties": {
				"title": "BORISENKO, Andrei Ivanovich",
				"date": "1964-04-17",
				"birthplace": "Leningrad, Russia",
				"data": "https://github.com/cosmos-book/cosmos-book.github.io/tree/master/human-spaceflight/data/BORISENKO_AI.md",
				"marker-size": "medium",
				"marker-color": "#f04031",
				"marker-symbol": "circle"
			}
		},{
			"type": "Feature",
			"geometry": {
				"type": "Point",
				"coordinates": [-87.337151, 41.602989]
			},
			"properties": {
				"title": "BORMAN, Frank",
				"date": "1928-03-14",
				"birthplace": "Gary, Indiana",
				"data": "https://github.com/cosmos-book/cosmos-book.github.io/tree/master/human-spaceflight/data/BORMAN_F.md",
				"marker-size": "medium",
				"marker-color": "#00a2d3",
				"marker-symbol": "circle"
			}
		},{
			"type": "Feature",
			"geometry": {
				"type": "Point",
				"coordinates": [-70.802544, 42.242489]
			},
			"properties": {
				"title": "BOWEN, Stephen G.",
				"date": "1964-02-13",
				"birthplace": "Cohasset, Massachusetts",
				"data": "https://github.com/cosmos-book/cosmos-book.github.io/tree/master/human-spaceflight/data/BOWEN_SG.md",
				"marker-size": "medium",
				"marker-color": "#00a2d3",
				"marker-symbol": "circle"
			}
		},{
			"type": "Feature",
			"geometry": {
				"type": "Point",
				"coordinates": [-76.297707, 36.832642]
			},
			"properties": {
				"title": "BOWERSOX, Kenneth D.",
				"date": "1956-11-14",
				"birthplace": "Portsmouth, Virginia",
				"data": "https://github.com/cosmos-book/cosmos-book.github.io/tree/master/human-spaceflight/data/BOWERSOX_KD.md",
				"marker-size": "medium",
				"marker-color": "#00a2d3",
				"marker-symbol": "circle"
			}
		},{
			"type": "Feature",
			"geometry": {
				"type": "Point",
				"coordinates": [-79.471977, 35.191299]
			},
			"properties": {
				"title": "BRADY, Charles E., Jr.",
				"date": "1951-08-12",
				"birthplace": "Pinehurst, North Carolina",
				"data": "https://github.com/cosmos-book/cosmos-book.github.io/tree/master/human-spaceflight/data/BRADY_CEJ.md",
				"marker-size": "medium",
				"marker-color": "#00a2d3",
				"marker-symbol": "circle"
			}
		},{
			"type": "Feature",
			"geometry": {
				"type": "Point",
				"coordinates": [-88.727676, 43.19099]
			},
			"properties": {
				"title": "BRANDENSTEIN, Daniel C.",
				"date": "1943-01-17",
				"birthplace": "Watertown, Wisconsin",
				"data": "https://github.com/cosmos-book/cosmos-book.github.io/tree/master/human-spaceflight/data/BRANDENSTEIN_DC.md",
				"marker-size": "medium",
				"marker-color": "#00a2d3",
				"marker-symbol": "circle"
			}
		},{
			"type": "Feature",
			"geometry": {
				"type": "Point",
				"coordinates": [-105.099876, 40.169102]
			},
			"properties": {
				"title": "BRAND, Vance D.",
				"date": "1931-05-09",
				"birthplace": "Longmont, Colorado",
				"data": "https://github.com/cosmos-book/cosmos-book.github.io/tree/master/human-spaceflight/data/BRAND_VD.md",
				"marker-size": "medium",
				"marker-color": "#00a2d3",
				"marker-symbol": "circle"
			}
		},{
			"type": "Feature",
			"geometry": {
				"type": "Point",
				"coordinates": [-85.963631, 37.891232]
			},
			"properties": {
				"title": "BRESNIK, Randolph J.",
				"date": "1967-09-11",
				"birthplace": "Fort Knox, Kentucky",
				"data": "https://github.com/cosmos-book/cosmos-book.github.io/tree/master/human-spaceflight/data/BRESNIK_RJ.md",
				"marker-size": "medium",
				"marker-color": "#00a2d3",
				"marker-symbol": "circle"
			}
		},{
			"type": "Feature",
			"geometry": {
				"type": "Point",
				"coordinates": [-84.423058, 33.763191]
			},
			"properties": {
				"title": "BRIDGES, Roy D., Jr.",
				"date": "1943-07-19",
				"birthplace": "Atlanta, Georgia",
				"data": "https://github.com/cosmos-book/cosmos-book.github.io/tree/master/human-spaceflight/data/BRIDGES_RDJ.md",
				"marker-size": "medium",
				"marker-color": "#00a2d3",
				"marker-symbol": "circle"
			}
		},{
			"type": "Feature",
			"geometry": {
				"type": "Point",
				"coordinates": [-78.610062, 34.623192]
			},
			"properties": {
				"title": "BROWN, Curtis L., Jr.",
				"date": "1956-03-11",
				"birthplace": "Elizabethtown, North Carolina",
				"data": "https://github.com/cosmos-book/cosmos-book.github.io/tree/master/human-spaceflight/data/BROWN_CLJ.md",
				"marker-size": "medium",
				"marker-color": "#00a2d3",
				"marker-symbol": "circle"
			}
		},{
			"type": "Feature",
			"geometry": {
				"type": "Point",
				"coordinates": [-77.10099, 38.878632]
			},
			"properties": {
				"title": "BROWN, David M.",
				"date": "1956-04-16",
				"birthplace": "Arlington, Virginia",
				"data": "https://github.com/cosmos-book/cosmos-book.github.io/tree/master/human-spaceflight/data/BROWN_DM.md",
				"marker-size": "medium",
				"marker-color": "#00a2d3",
				"marker-symbol": "circle"
			}
		},{
			"type": "Feature",
			"geometry": {
				"type": "Point",
				"coordinates": [-87.061623, 41.467751]
			},
			"properties": {
				"title": "BROWN, Mark N.",
				"date": "1951-11-18",
				"birthplace": "Valparaiso, Indiana",
				"data": "https://github.com/cosmos-book/cosmos-book.github.io/tree/master/human-spaceflight/data/BROWN_MN.md",
				"marker-size": "medium",
				"marker-color": "#00a2d3",
				"marker-symbol": "circle"
			}
		},{
			"type": "Feature",
			"geometry": {
				"type": "Point",
				"coordinates": [-99.140846, 47.68092]
			},
			"properties": {
				"title": "BUCHLI, James F.",
				"date": "1945-06-20",
				"birthplace": "New Rockford, North Dakota",
				"data": "https://github.com/cosmos-book/cosmos-book.github.io/tree/master/human-spaceflight/data/BUCHLI_JF.md",
				"marker-size": "medium",
				"marker-color": "#00a2d3",
				"marker-symbol": "circle"
			}
		},{
			"type": "Feature",
			"geometry": {
				"type": "Point",
				"coordinates": [-74.007118, 40.71455]
			},
			"properties": {
				"title": "BUCKEY, Jay Clark",
				"date": "1956-06-06",
				"birthplace": "New York, New York",
				"data": "https://github.com/cosmos-book/cosmos-book.github.io/tree/master/human-spaceflight/data/BUCKEY_JC.md",
				"marker-size": "medium",
				"marker-color": "#00a2d3",
				"marker-symbol": "circle"
			}
		},{
			"type": "Feature",
			"geometry": {
				"type": "Point",
				"coordinates": [46.861382, 55.081188]
			},
			"properties": {
				"title": "BUDARIN, Nikolai Mikhailovich",
				"date": "1953-04-29",
				"birthplace": "Kirya, Chuvashia",
				"data": "https://github.com/cosmos-book/cosmos-book.github.io/tree/master/human-spaceflight/data/BUDARIN_NM.md",
				"marker-size": "medium",
				"marker-color": "#f04031",
				"marker-symbol": "circle"
			}
		},{
			"type": "Feature",
			"geometry": {
				"type": "Point",
				"coordinates": [-72.524178, 41.775249]
			},
			"properties": {
				"title": "BURBANK, Daniel C.",
				"date": "1961-07-27",
				"birthplace": "Manchester, Connecticut",
				"data": "https://github.com/cosmos-book/cosmos-book.github.io/tree/master/human-spaceflight/data/BURBANK_DC.md",
				"marker-size": "medium",
				"marker-color": "#00a2d3",
				"marker-symbol": "circle"
			}
		},{
			"type": "Feature",
			"geometry": {
				"type": "Point",
				"coordinates": [-74.854401, 40.104599]
			},
			"properties": {
				"title": "BURSCH, Daniel W.",
				"date": "1957-07-25",
				"birthplace": "Bristol, Pennsylvania",
				"data": "https://github.com/cosmos-book/cosmos-book.github.io/tree/master/human-spaceflight/data/BURSCH_DW.md",
				"marker-size": "medium",
				"marker-color": "#00a2d3",
				"marker-symbol": "circle"
			}
		},{
			"type": "Feature",
			"geometry": {
				"type": "Point",
				"coordinates": [55.794559, 44.957489]
			},
			"properties": {
				"title": "BYKOVSKY, Valeri Fyodorovich",
				"date": "1934-08-02",
				"birthplace": "Pavlovsky Posad, Soviet Union",
				"data": "https://github.com/cosmos-book/cosmos-book.github.io/tree/master/human-spaceflight/data/BYKOVSKY_VF.md",
				"marker-size": "medium",
				"marker-color": "#f04031",
				"marker-symbol": "circle"
			}
		},{
			"type": "Feature",
			"geometry": {
				"type": "Point",
				"coordinates": [-93.264931, 44.979031]
			},
			"properties": {
				"title": "CABANA, Robert D.",
				"date": "1949-01-23",
				"birthplace": "Minneapolis, Minnesota",
				"data": "https://github.com/cosmos-book/cosmos-book.github.io/tree/master/human-spaceflight/data/CABANA_RD.md",
				"marker-size": "medium",
				"marker-color": "#00a2d3",
				"marker-symbol": "circle"
			}
		},{
			"type": "Feature",
			"geometry": {
				"type": "Point",
				"coordinates": [-118.036522, 34.133499]
			},
			"properties": {
				"title": "CALDWELL (Dyson), Tracy E.",
				"date": "1969-08-14",
				"birthplace": "Arcadia, California",
				"data": "https://github.com/cosmos-book/cosmos-book.github.io/tree/master/human-spaceflight/data/CALDWELL_TE.md",
				"marker-size": "medium",
				"marker-color": "#00a2d3",
				"marker-symbol": "circle"
			}
		},{
			"type": "Feature",
			"geometry": {
				"type": "Point",
				"coordinates": [-73.83168, 40.7038]
			},
			"properties": {
				"title": "CAMARDA, Charles J.",
				"date": "1952-05-08",
				"birthplace": "Queens, New York",
				"data": "https://github.com/cosmos-book/cosmos-book.github.io/tree/master/human-spaceflight/data/CAMARDA_CJ.md",
				"marker-size": "medium",
				"marker-color": "#00a2d3",
				"marker-symbol": "circle"
			}
		},{
			"type": "Feature",
			"geometry": {
				"type": "Point",
				"coordinates": [-81.69072, 41.504749]
			},
			"properties": {
				"title": "CAMERON, Kenneth D.",
				"date": "1949-11-29",
				"birthplace": "Cleveland, Ohio",
				"data": "https://github.com/cosmos-book/cosmos-book.github.io/tree/master/human-spaceflight/data/CAMERON_KD.md",
				"marker-size": "medium",
				"marker-color": "#00a2d3",
				"marker-symbol": "circle"
			}
		},{
			"type": "Feature",
			"geometry": {
				"type": "Point",
				"coordinates": [-93.103882, 44.947769]
			},
			"properties": {
				"title": "CAREY, Duane G.",
				"date": "1957-04-30",
				"birthplace": "St. Paul, Minnesota",
				"data": "https://github.com/cosmos-book/cosmos-book.github.io/tree/master/human-spaceflight/data/CAREY_DG.md",
				"marker-size": "medium",
				"marker-color": "#00a2d3",
				"marker-symbol": "circle"
			}
		},{
			"type": "Feature",
			"geometry": {
				"type": "Point",
				"coordinates": [-105.252487, 40.02779]
			},
			"properties": {
				"title": "CARPENTER, M. Scott",
				"date": "1925-05-01",
				"birthplace": "Boulder, Colorado",
				"data": "https://github.com/cosmos-book/cosmos-book.github.io/tree/master/human-spaceflight/data/CARPENTER_MS.md",
				"marker-size": "medium",
				"marker-color": "#00a2d3",
				"marker-symbol": "circle"
			}
		},{
			"type": "Feature",
			"geometry": {
				"type": "Point",
				"coordinates": [-104.991997, 39.740002]
			},
			"properties": {
				"title": "CARR, Gerald P.",
				"date": "1932-08-22",
				"birthplace": "Denver, Colorado",
				"data": "https://github.com/cosmos-book/cosmos-book.github.io/tree/master/human-spaceflight/data/CARR_GP.md",
				"marker-size": "medium",
				"marker-color": "#00a2d3",
				"marker-symbol": "circle"
			}
		},{
			"type": "Feature",
			"geometry": {
				"type": "Point",
				"coordinates": [-83.627579, 32.83968]
			},
			"properties": {
				"title": "CARTER, Manley Lanier, Jr., 'Sonny'",
				"date": "1947-08-15",
				"birthplace": "Macon, Georgia",
				"data": "https://github.com/cosmos-book/cosmos-book.github.io/tree/master/human-spaceflight/data/CARTER_MLJ.md",
				"marker-size": "medium",
				"marker-color": "#00a2d3",
				"marker-symbol": "circle"
			}
		},{
			"type": "Feature",
			"geometry": {
				"type": "Point",
				"coordinates": [-82.365143, 34.83707]
			},
			"properties": {
				"title": "CASPER, John H.",
				"date": "1943-07-09",
				"birthplace": "Greenville, South Carolina",
				"data": "https://github.com/cosmos-book/cosmos-book.github.io/tree/master/human-spaceflight/data/CASPER_JH.md",
				"marker-size": "medium",
				"marker-color": "#00a2d3",
				"marker-symbol": "circle"
			}
		},{
			"type": "Feature",
			"geometry": {
				"type": "Point",
				"coordinates": [-70.895813, 42.5224]
			},
			"properties": {
				"title": "CASSIDY, Christopher J.",
				"date": "1970-01-04",
				"birthplace": "Salem, Massachusetts",
				"data": "https://github.com/cosmos-book/cosmos-book.github.io/tree/master/human-spaceflight/data/CASSIDY_CJ.md",
				"marker-size": "medium",
				"marker-color": "#00a2d3",
				"marker-symbol": "circle"
			}
		},{
			"type": "Feature",
			"geometry": {
				"type": "Point",
				"coordinates": [-79.724098, 39.8974]
			},
			"properties": {
				"title": "CENKER, Robert",
				"date": "1948-11-05",
				"birthplace": "Uniontown, Pennsylvania",
				"data": "https://github.com/cosmos-book/cosmos-book.github.io/tree/master/human-spaceflight/data/CENKER_R.md",
				"marker-size": "medium",
				"marker-color": "#00a2d3",
				"marker-symbol": "circle"
			}
		},{
			"type": "Feature",
			"geometry": {
				"type": "Point",
				"coordinates": [-87.632408, 41.884151]
			},
			"properties": {
				"title": "CERNAN, Eugene A.",
				"date": "1934-03-14",
				"birthplace": "Chicago, Illinois",
				"data": "https://github.com/cosmos-book/cosmos-book.github.io/tree/master/human-spaceflight/data/CERNAN_EA.md",
				"marker-size": "medium",
				"marker-color": "#00a2d3",
				"marker-symbol": "circle"
			}
		},{
			"type": "Feature",
			"geometry": {
				"type": "Point",
				"coordinates": [-73.625122, 45.536491]
			},
			"properties": {
				"title": "CHAMITOFF, Gregory E.",
				"date": "1962-08-06",
				"birthplace": "Montreal, Canada",
				"data": "https://github.com/cosmos-book/cosmos-book.github.io/tree/master/human-spaceflight/data/CHAMITOFF_GE.md",
				"marker-size": "medium",
				"marker-color": "#00a2d3",
				"marker-symbol": "circle"
			}
		},{
			"type": "Feature",
			"geometry": {
				"type": "Point",
				"coordinates": [-84.078621, 9.93047]
			},
			"properties": {
				"title": "CHANG-DIAZ, Franklin R.",
				"date": "1950-04-05",
				"birthplace": "San Jose, Costa Rica",
				"data": "https://github.com/cosmos-book/cosmos-book.github.io/tree/master/human-spaceflight/data/CHANG-DIAZ_FR.md",
				"marker-size": "medium",
				"marker-color": "#00a2d3",
				"marker-symbol": "circle"
			}
		},{
			"type": "Feature",
			"geometry": {
				"type": "Point",
				"coordinates": [76.978203, 29.683451]
			},
			"properties": {
				"title": "CHAWLA, Kalpana",
				"date": "1961-07-01",
				"birthplace": "Karnal, India",
				"data": "https://github.com/cosmos-book/cosmos-book.github.io/tree/master/human-spaceflight/data/CHAWLA_K.md",
				"marker-size": "medium",
				"marker-color": "#00a2d3",
				"marker-symbol": "circle"
			}
		},{
			"type": "Feature",
			"geometry": {
				"type": "Point",
				"coordinates": [10.92657, 44.644699]
			},
			"properties": {
				"title": "CHELI, Maurizio",
				"date": "1959-05-04",
				"birthplace": "Modena, Italy",
				"data": "https://github.com/cosmos-book/cosmos-book.github.io/tree/master/human-spaceflight/data/CHELI_M.md",
				"marker-size": "medium",
				"marker-color": "#67c18d",
				"marker-symbol": "circle"
			}
		},{
			"type": "Feature",
			"geometry": {
				"type": "Point",
				"coordinates": [-87.906837, 43.041809]
			},
			"properties": {
				"title": "CHIAO, Leroy",
				"date": "1960-08-28",
				"birthplace": "Milwaukee, Wisconsin",
				"data": "https://github.com/cosmos-book/cosmos-book.github.io/tree/master/human-spaceflight/data/CHIAO_L.md",
				"marker-size": "medium",
				"marker-color": "#00a2d3",
				"marker-symbol": "circle"
			}
		},{
			"type": "Feature",
			"geometry": {
				"type": "Point",
				"coordinates": [-118.245003, 34.053501]
			},
			"properties": {
				"title": "CHILTON, Kevin P., General",
				"date": "1954-11-03",
				"birthplace": "Los Angeles, California",
				"data": "https://github.com/cosmos-book/cosmos-book.github.io/tree/master/human-spaceflight/data/CHILTON_KPG.md",
				"marker-size": "medium",
				"marker-color": "#00a2d3",
				"marker-symbol": "circle"
			}
		},{
			"type": "Feature",
			"geometry": {
				"type": "Point",
				"coordinates": [-1.16984, 46.16008]
			},
			"properties": {
				"title": "CHR&Eacute;TIEN, Jean-Loup Jacques Marie",
				"date": "1938-08-20",
				"birthplace": "La Rochelle, France",
				"data": "https://github.com/cosmos-book/cosmos-book.github.io/tree/master/human-spaceflight/data/CHRETIEN_JJM.md",
				"marker-size": "medium",
				"marker-color": "#67c18d",
				"marker-symbol": "circle"
			}
		},{
			"type": "Feature",
			"geometry": {
				"type": "Point",
				"coordinates": [-93.627487, 42.025551]
			},
			"properties": {
				"title": "CLARK, Laurel B.",
				"date": "1961-03-10",
				"birthplace": "Ames, Iowa",
				"data": "https://github.com/cosmos-book/cosmos-book.github.io/tree/master/human-spaceflight/data/CLARK_LB.md",
				"marker-size": "medium",
				"marker-color": "#00a2d3",
				"marker-symbol": "circle"
			}
		},{
			"type": "Feature",
			"geometry": {
				"type": "Point",
				"coordinates": [-72.4123, 40.8708]
			},
			"properties": {
				"title": "CLEAVE, Mary L.",
				"date": "1947-02-05",
				"birthplace": "Southampton, New York",
				"data": "https://github.com/cosmos-book/cosmos-book.github.io/tree/master/human-spaceflight/data/CLEAVE_ML.md",
				"marker-size": "medium",
				"marker-color": "#00a2d3",
				"marker-symbol": "circle"
			}
		},{
			"type": "Feature",
			"geometry": {
				"type": "Point",
				"coordinates": [6.13512, 49.11377]
			},
			"properties": {
				"title": "CLERVOY, Jean-Fran&ccedil;ois Andr&eacute;",
				"date": "1958-11-19",
				"birthplace": "Longeville-l√®s-Metz, France",
				"data": "https://github.com/cosmos-book/cosmos-book.github.io/tree/master/human-spaceflight/data/CLERVOY_JA.md",
				"marker-size": "medium",
				"marker-color": "#67c18d",
				"marker-symbol": "circle"
			}
		},{
			"type": "Feature",
			"geometry": {
				"type": "Point",
				"coordinates": [-117.294678, 34.138271]
			},
			"properties": {
				"title": "CLIFFORD, Michael R.",
				"date": "1952-10-13",
				"birthplace": "San Bernardino, California",
				"data": "https://github.com/cosmos-book/cosmos-book.github.io/tree/master/human-spaceflight/data/CLIFFORD_MR.md",
				"marker-size": "medium",
				"marker-color": "#00a2d3",
				"marker-symbol": "circle"
			}
		},{
			"type": "Feature",
			"geometry": {
				"type": "Point",
				"coordinates": [-121.468849, 38.56789]
			},
			"properties": {
				"title": "COATS, Michael L.",
				"date": "1946-01-16",
				"birthplace": "Sacramento, California",
				"data": "https://github.com/cosmos-book/cosmos-book.github.io/tree/master/human-spaceflight/data/COATS_ML.md",
				"marker-size": "medium",
				"marker-color": "#00a2d3",
				"marker-symbol": "circle"
			}
		},{
			"type": "Feature",
			"geometry": {
				"type": "Point",
				"coordinates": [-97.752762, 30.30637]
			},
			"properties": {
				"title": "COCKRELL, Kenneth D.",
				"date": "1950-04-09",
				"birthplace": "Austin, Texas",
				"data": "https://github.com/cosmos-book/cosmos-book.github.io/tree/master/human-spaceflight/data/COCKRELL_KD.md",
				"marker-size": "medium",
				"marker-color": "#00a2d3",
				"marker-symbol": "circle"
			}
		},{
			"type": "Feature",
			"geometry": {
				"type": "Point",
				"coordinates": [-79.931602, 32.781151]
			},
			"properties": {
				"title": "COLEMAN, Catherine G. 'Cady', (Ph.D.)",
				"date": "1960-12-14",
				"birthplace": "Charleston, South Carolina",
				"data": "https://github.com/cosmos-book/cosmos-book.github.io/tree/master/human-spaceflight/data/COLEMAN_CG.md",
				"marker-size": "medium",
				"marker-color": "#00a2d3",
				"marker-symbol": "circle"
			}
		},{
			"type": "Feature",
			"geometry": {
				"type": "Point",
				"coordinates": [-76.809502, 42.0924]
			},
			"properties": {
				"title": "COLLINS, Eileen M.",
				"date": "1956-11-19",
				"birthplace": "Elmira, New York",
				"data": "https://github.com/cosmos-book/cosmos-book.github.io/tree/master/human-spaceflight/data/COLLINS_EM.md",
				"marker-size": "medium",
				"marker-color": "#00a2d3",
				"marker-symbol": "circle"
			}
		},{
			"type": "Feature",
			"geometry": {
				"type": "Point",
				"coordinates": [12.4956, 41.898399]
			},
			"properties": {
				"title": "COLLINS, Michael",
				"date": "1930-10-31",
				"birthplace": "Rome, Italy",
				"data": "https://github.com/cosmos-book/cosmos-book.github.io/tree/master/human-spaceflight/data/COLLINS_M.md",
				"marker-size": "medium",
				"marker-color": "#00a2d3",
				"marker-symbol": "circle"
			}
		},{
			"type": "Feature",
			"geometry": {
				"type": "Point",
				"coordinates": [-75.133957, 40.007629]
			},
			"properties": {
				"title": "CONRAD, Charles 'Pete', Jr.",
				"date": "1930-06-02",
				"birthplace": "Philadelphia, Pennsylvania",
				"data": "https://github.com/cosmos-book/cosmos-book.github.io/tree/master/human-spaceflight/data/CONRAD_CJ.md",
				"marker-size": "medium",
				"marker-color": "#00a2d3",
				"marker-symbol": "circle"
			}
		},{
			"type": "Feature",
			"geometry": {
				"type": "Point",
				"coordinates": [-96.924828, 35.332039]
			},
			"properties": {
				"title": "COOPER, L. Gordon, Jr.",
				"date": "1927-03-06",
				"birthplace": "Shawnee, Oklahoma",
				"data": "https://github.com/cosmos-book/cosmos-book.github.io/tree/master/human-spaceflight/data/COOPER_LGJ.md",
				"marker-size": "medium",
				"marker-color": "#00a2d3",
				"marker-symbol": "circle"
			}
		},{
			"type": "Feature",
			"geometry": {
				"type": "Point",
				"coordinates": [-94.157913, 36.063202]
			},
			"properties": {
				"title": "COVEY, Richard O.",
				"date": "1946-08-01",
				"birthplace": "Fayetteville, Arkansas",
				"data": "https://github.com/cosmos-book/cosmos-book.github.io/tree/master/human-spaceflight/data/COVEY_RO.md",
				"marker-size": "medium",
				"marker-color": "#00a2d3",
				"marker-symbol": "circle"
			}
		},{
			"type": "Feature",
			"geometry": {
				"type": "Point",
				"coordinates": [-110.346153, 31.55479]
			},
			"properties": {
				"title": "CREAMER, Timothy J.",
				"date": "1959-11-15",
				"birthplace": "Ft. Huachuca, Arizona",
				"data": "https://github.com/cosmos-book/cosmos-book.github.io/tree/master/human-spaceflight/data/CREAMER_TJ.md",
				"marker-size": "medium",
				"marker-color": "#00a2d3",
				"marker-symbol": "circle"
			}
		},{
			"type": "Feature",
			"geometry": {
				"type": "Point",
				"coordinates": [-93.736679, 30.0931]
			},
			"properties": {
				"title": "CREIGHTON, John O.",
				"date": "1943-04-28",
				"birthplace": "Orange, Texas",
				"data": "https://github.com/cosmos-book/cosmos-book.github.io/tree/master/human-spaceflight/data/CREIGHTON_JO.md",
				"marker-size": "medium",
				"marker-color": "#00a2d3",
				"marker-symbol": "circle"
			}
		},{
			"type": "Feature",
			"geometry": {
				"type": "Point",
				"coordinates": [-94.101578, 30.086149]
			},
			"properties": {
				"title": "CRIPPEN, Robert L.",
				"date": "1937-09-11",
				"birthplace": "Beaumont, Texas",
				"data": "https://github.com/cosmos-book/cosmos-book.github.io/tree/master/human-spaceflight/data/CRIPPEN_RL.md",
				"marker-size": "medium",
				"marker-color": "#00a2d3",
				"marker-symbol": "circle"
			}
		},{
			"type": "Feature",
			"geometry": {
				"type": "Point",
				"coordinates": [9.17789, 45.4781]
			},
			"properties": {
				"title": "CRISTOFORETTI, Samantha",
				"date": "1977-04-26",
				"birthplace": "Milan, Italy",
				"data": "https://github.com/cosmos-book/cosmos-book.github.io/tree/master/human-spaceflight/data/CRISTOFORETTI_S.md",
				"marker-size": "medium",
				"marker-color": "#67c18d",
				"marker-symbol": "circle"
			}
		},{
			"type": "Feature",
			"geometry": {
				"type": "Point",
				"coordinates": [-84.934158, 36.431789]
			},
			"properties": {
				"title": "CROUCH, Roger K.",
				"date": "1940-09-12",
				"birthplace": "Jamestown, Tennessee",
				"data": "https://github.com/cosmos-book/cosmos-book.github.io/tree/master/human-spaceflight/data/CROUCH_RK.md",
				"marker-size": "medium",
				"marker-color": "#00a2d3",
				"marker-symbol": "circle"
			}
		},{
			"type": "Feature",
			"geometry": {
				"type": "Point",
				"coordinates": [-79.931602, 32.781151]
			},
			"properties": {
				"title": "CULBERTSON, Frank L., Jr.",
				"date": "1949-05-15",
				"birthplace": "Charleston, South Carolina",
				"data": "https://github.com/cosmos-book/cosmos-book.github.io/tree/master/human-spaceflight/data/CULBERTSON_FLJ.md",
				"marker-size": "medium",
				"marker-color": "#00a2d3",
				"marker-symbol": "circle"
			}
		},{
			"type": "Feature",
			"geometry": {
				"type": "Point",
				"coordinates": [-94.364769, 41.059368]
			},
			"properties": {
				"title": "CUNNINGHAM, Walter",
				"date": "1932-03-16",
				"birthplace": "Creston, Iowa",
				"data": "https://github.com/cosmos-book/cosmos-book.github.io/tree/master/human-spaceflight/data/CUNNINGHAM_W.md",
				"marker-size": "medium",
				"marker-color": "#00a2d3",
				"marker-symbol": "circle"
			}
		},{
			"type": "Feature",
			"geometry": {
				"type": "Point",
				"coordinates": [-76.610611, 39.300968]
			},
			"properties": {
				"title": "CURBEAM, Robert L., Jr.",
				"date": "1962-03-05",
				"birthplace": "Baltimore, Maryland",
				"data": "https://github.com/cosmos-book/cosmos-book.github.io/tree/master/human-spaceflight/data/CURBEAM_RLJ.md",
				"marker-size": "medium",
				"marker-color": "#00a2d3",
				"marker-symbol": "circle"
			}
		},{
			"type": "Feature",
			"geometry": {
				"type": "Point",
				"coordinates": [-75.528412, 39.734951]
			},
			"properties": {
				"title": "CURRIE, Nancy J. (Sherlock), (Ph.D.)",
				"date": "1958-12-29",
				"birthplace": "Wilmington, Delaware",
				"data": "https://github.com/cosmos-book/cosmos-book.github.io/tree/master/human-spaceflight/data/CURRIE_NJ.md",
				"marker-size": "medium",
				"marker-color": "#00a2d3",
				"marker-symbol": "circle"
			}
		},{
			"type": "Feature",
			"geometry": {
				"type": "Point",
				"coordinates": [-80.627052, 28.332769]
			},
			"properties": {
				"title": "DAVIS, N. Jan",
				"date": "1953-11-01",
				"birthplace": "Cocoa Beach, Florida",
				"data": "https://github.com/cosmos-book/cosmos-book.github.io/tree/master/human-spaceflight/data/DAVIS_NJ.md",
				"marker-size": "medium",
				"marker-color": "#00a2d3",
				"marker-symbol": "circle"
			}
		},{
			"type": "Feature",
			"geometry": {
				"type": "Point",
				"coordinates": [3.72856, 51.05563]
			},
			"properties": {
				"title": "DE WINNE, Frank",
				"date": "1961-04-25",
				"birthplace": "Ghent, Belgium",
				"data": "https://github.com/cosmos-book/cosmos-book.github.io/tree/master/human-spaceflight/data/DE WINNE_F.md",
				"marker-size": "medium",
				"marker-color": "#67c18d",
				"marker-symbol": "circle"
			}
		},{
			"type": "Feature",
			"geometry": {
				"type": "Point",
				"coordinates": [-76.139297, 43.035198]
			},
			"properties": {
				"title": "DELUCAS, Lawrence J.",
				"date": "1950-07-11",
				"birthplace": "Syracuse, New York",
				"data": "https://github.com/cosmos-book/cosmos-book.github.io/tree/master/human-spaceflight/data/DELUCAS_LJ.md",
				"marker-size": "medium",
				"marker-color": "#00a2d3",
				"marker-symbol": "circle"
			}
		},{
			"type": "Feature",
			"geometry": {
				"type": "Point",
				"coordinates": [42.846481, 54.41748]
			},
			"properties": {
				"title": "DEZHUROV, Vladimir Nikolayevich",
				"date": "1962-07-30",
				"birthplace": "Yavas, Mordovia",
				"data": "https://github.com/cosmos-book/cosmos-book.github.io/tree/master/human-spaceflight/data/DEZHUROV_VN.md",
				"marker-size": "medium",
				"marker-color": "#f04031",
				"marker-symbol": "circle"
			}
		},{
			"type": "Feature",
			"geometry": {
				"type": "Point",
				"coordinates": [30.74003, 46.469479]
			},
			"properties": {
				"title": "DOBROVOLSKY, Georgi Timofeyevich",
				"date": "1928-06-01",
				"birthplace": "Odessa, Ukrainian SSR, Soviet Union",
				"data": "https://github.com/cosmos-book/cosmos-book.github.io/tree/master/human-spaceflight/data/DOBROVOLSKY_GT.md",
				"marker-size": "medium",
				"marker-color": "#f04031",
				"marker-symbol": "circle"
			}
		},{
			"type": "Feature",
			"geometry": {
				"type": "Point",
				"coordinates": [139.740921, 35.670479]
			},
			"properties": {
				"title": "DOI, Takao",
				"date": "1954-09-18",
				"birthplace": "Tokyo, Japan",
				"data": "https://github.com/cosmos-book/cosmos-book.github.io/tree/master/human-spaceflight/data/DOI_T.md",
				"marker-size": "medium",
				"marker-color": "#67c18d",
				"marker-symbol": "circle"
			}
		},{
			"type": "Feature",
			"geometry": {
				"type": "Point",
				"coordinates": [112.44222, 34.66972]
			},
			"properties": {
				"title": "DONG, Chen",
				"date": "1978-12-01",
				"birthplace": "Luoyang, Henan",
				"data": "https://github.com/cosmos-book/cosmos-book.github.io/tree/master/human-spaceflight/data/DONG_C.md",
				"marker-size": "medium",
				"marker-color": "#ffcb06",
				"marker-symbol": "circle"
			}
		},{
			"type": "Feature",
			"geometry": {
				"type": "Point",
				"coordinates": [-77.016251, 38.904758]
			},
			"properties": {
				"title": "DREW, B. Alvin, Jr.",
				"date": "1962-11-05",
				"birthplace": "Washington D.C.",
				"data": "https://github.com/cosmos-book/cosmos-book.github.io/tree/master/human-spaceflight/data/DREW_BAJ.md",
				"marker-size": "medium",
				"marker-color": "#00a2d3",
				"marker-symbol": "circle"
			}
		},{
			"type": "Feature",
			"geometry": {
				"type": "Point",
				"coordinates": [-71.056702, 42.358631]
			},
			"properties": {
				"title": "DUFFY, Brian",
				"date": "1953-06-20",
				"birthplace": "Boston, Massachusetts",
				"data": "https://github.com/cosmos-book/cosmos-book.github.io/tree/master/human-spaceflight/data/DUFFY_B.md",
				"marker-size": "medium",
				"marker-color": "#00a2d3",
				"marker-symbol": "circle"
			}
		},{
			"type": "Feature",
			"geometry": {
				"type": "Point",
				"coordinates": [-80.83754, 35.2225]
			},
			"properties": {
				"title": "DUKE, Charles M., Jr.",
				"date": "1935-10-03",
				"birthplace": "Charlotte, North Carolina",
				"data": "https://github.com/cosmos-book/cosmos-book.github.io/tree/master/human-spaceflight/data/DUKE_CMJ.md",
				"marker-size": "medium",
				"marker-color": "#00a2d3",
				"marker-symbol": "circle"
			}
		},{
			"type": "Feature",
			"geometry": {
				"type": "Point",
				"coordinates": [-120.006554, 46.31604]
			},
			"properties": {
				"title": "DUNBAR, Bonnie",
				"date": "1949-03-03",
				"birthplace": "Sunnyside, Washington",
				"data": "https://github.com/cosmos-book/cosmos-book.github.io/tree/master/human-spaceflight/data/DUNBAR_B.md",
				"marker-size": "medium",
				"marker-color": "#00a2d3",
				"marker-symbol": "circle"
			}
		},{
			"type": "Feature",
			"geometry": {
				"type": "Point",
				"coordinates": [-3.67163, 40.421429]
			},
			"properties": {
				"title": "DUQUE, Pedro Francisco",
				"date": "1963-03-14",
				"birthplace": "Madrid, Spain",
				"data": "https://github.com/cosmos-book/cosmos-book.github.io/tree/master/human-spaceflight/data/DUQUE_PF.md",
				"marker-size": "medium",
				"marker-color": "#67c18d",
				"marker-symbol": "circle"
			}
		},{
			"type": "Feature",
			"geometry": {
				"type": "Point",
				"coordinates": [-84.280647, 30.43977]
			},
			"properties": {
				"title": "DURRANCE, Samuel T.",
				"date": "1943-09-17",
				"birthplace": "Tallahassee, Florida",
				"data": "https://github.com/cosmos-book/cosmos-book.github.io/tree/master/human-spaceflight/data/DURRANCE_ST.md",
				"marker-size": "medium",
				"marker-color": "#00a2d3",
				"marker-symbol": "circle"
			}
		},{
			"type": "Feature",
			"geometry": {
				"type": "Point",
				"coordinates": [-123.088539, 44.049919]
			},
			"properties": {
				"title": "DUTTON, James P., Jr.",
				"date": "1968-11-20",
				"birthplace": "Eugene, Oregon",
				"data": "https://github.com/cosmos-book/cosmos-book.github.io/tree/master/human-spaceflight/data/DUTTON_JPJ.md",
				"marker-size": "medium",
				"marker-color": "#00a2d3",
				"marker-symbol": "circle"
			}
		},{
			"type": "Feature",
			"geometry": {
				"type": "Point",
				"coordinates": [37.605061, 55.741638]
			},
			"properties": {
				"title": "DYOMIN, Lev Stepanovich",
				"date": "1926-01-11",
				"birthplace": "Moscow, Russia",
				"data": "https://github.com/cosmos-book/cosmos-book.github.io/tree/master/human-spaceflight/data/DYOMIN_LS.md",
				"marker-size": "medium",
				"marker-color": "#f04031",
				"marker-symbol": "circle"
			}
		},{
			"type": "Feature",
			"geometry": {
				"type": "Point",
				"coordinates": [69.268959, 41.305222]
			},
			"properties": {
				"title": "DZHANIBEKOV, Vladimir Aleksandrovich",
				"date": "1942-05-13",
				"birthplace": "Iskandar, Tashkent, Uzbekistan",
				"data": "https://github.com/cosmos-book/cosmos-book.github.io/tree/master/human-spaceflight/data/DZHANIBEKOV_VA.md",
				"marker-size": "medium",
				"marker-color": "#f04031",
				"marker-symbol": "circle"
			}
		},{
			"type": "Feature",
			"geometry": {
				"type": "Point",
				"coordinates": [-77.475639, 37.52943]
			},
			"properties": {
				"title": "EDWARDS, Joe F., Jr.",
				"date": "1958-02-03",
				"birthplace": "Richmond, Virginia",
				"data": "https://github.com/cosmos-book/cosmos-book.github.io/tree/master/human-spaceflight/data/EDWARDS_JFJ.md",
				"marker-size": "medium",
				"marker-color": "#00a2d3",
				"marker-symbol": "circle"
			}
		},{
			"type": "Feature",
			"geometry": {
				"type": "Point",
				"coordinates": [-82.985329, 39.98914]
			},
			"properties": {
				"title": "EISELE, Donn F.",
				"date": "1930-06-23",
				"birthplace": "Columbus, Ohio",
				"data": "https://github.com/cosmos-book/cosmos-book.github.io/tree/master/human-spaceflight/data/EISELE_DF.md",
				"marker-size": "medium",
				"marker-color": "#00a2d3",
				"marker-symbol": "circle"
			}
		},{
			"type": "Feature",
			"geometry": {
				"type": "Point",
				"coordinates": [-86.149963, 39.766911]
			},
			"properties": {
				"title": "ENGLAND, Anthony W.",
				"date": "1942-05-15",
				"birthplace": "Indianapolis, Indiana",
				"data": "https://github.com/cosmos-book/cosmos-book.github.io/tree/master/human-spaceflight/data/ENGLAND_AW.md",
				"marker-size": "medium",
				"marker-color": "#00a2d3",
				"marker-symbol": "circle"
			}
		},{
			"type": "Feature",
			"geometry": {
				"type": "Point",
				"coordinates": [-97.135681, 38.871281]
			},
			"properties": {
				"title": "ENGLE, Joe H.",
				"date": "1932-08-26",
				"birthplace": "Dickinson County, Kansas",
				"data": "https://github.com/cosmos-book/cosmos-book.github.io/tree/master/human-spaceflight/data/ENGLE_JH.md",
				"marker-size": "medium",
				"marker-color": "#00a2d3",
				"marker-symbol": "circle"
			}
		},{
			"type": "Feature",
			"geometry": {
				"type": "Point",
				"coordinates": [-101.801201, 39.77129]
			},
			"properties": {
				"title": "EVANS, Ronald E.",
				"date": "1933-11-10",
				"birthplace": "St. Francis, Kansas",
				"data": "https://github.com/cosmos-book/cosmos-book.github.io/tree/master/human-spaceflight/data/EVANS_RE.md",
				"marker-size": "medium",
				"marker-color": "#00a2d3",
				"marker-symbol": "circle"
			}
		},{
			"type": "Feature",
			"geometry": {
				"type": "Point",
				"coordinates": [6.44268, 51.195499]
			},
			"properties": {
				"title": "EWALD, Reinhold",
				"date": "1956-12-18",
				"birthplace": "M√∂nchengladbach, Germany",
				"data": "https://github.com/cosmos-book/cosmos-book.github.io/tree/master/human-spaceflight/data/EWALD_R.md",
				"marker-size": "medium",
				"marker-color": "#67c18d",
				"marker-symbol": "circle"
			}
		},{
			"type": "Feature",
			"geometry": {
				"type": "Point",
				"coordinates": [-1.55319, 43.471951]
			},
			"properties": {
				"title": "EYHARTS, L&eacute;opold Paul Pierre",
				"date": "1957-04-28",
				"birthplace": "Biarritz, Pyr√©n√©es-Atlantiques, France",
				"data": "https://github.com/cosmos-book/cosmos-book.github.io/tree/master/human-spaceflight/data/EYHARTS_LPP.md",
				"marker-size": "medium",
				"marker-color": "#67c18d",
				"marker-symbol": "circle"
			}
		},{
			"type": "Feature",
			"geometry": {
				"type": "Point",
				"coordinates": [-94.965508, 29.73386]
			},
			"properties": {
				"title": "FABIAN, John M.",
				"date": "1939-01-28",
				"birthplace": "Goose Creek, Texas",
				"data": "https://github.com/cosmos-book/cosmos-book.github.io/tree/master/human-spaceflight/data/FABIAN_JM.md",
				"marker-size": "medium",
				"marker-color": "#00a2d3",
				"marker-symbol": "circle"
			}
		},{
			"type": "Feature",
			"geometry": {
				"type": "Point",
				"coordinates": [37.641121, 36.2635]
			},
			"properties": {
				"title": "FARIS, Muhammed Achmed",
				"date": "1951-05-26",
				"birthplace": "Aleppo, Syria",
				"data": "https://github.com/cosmos-book/cosmos-book.github.io/tree/master/human-spaceflight/data/FARIS_MA.md",
				"marker-size": "medium",
				"marker-color": "#67c18d",
				"marker-symbol": "circle"
			}
		},{
			"type": "Feature",
			"geometry": {
				"type": "Point",
				"coordinates": [22.112089, 48.1371]
			},
			"properties": {
				"title": "FARKAS, Bertalan 'Bertsi'",
				"date": "1949-08-02",
				"birthplace": "Gyulah√°za, Hungary",
				"data": "https://github.com/cosmos-book/cosmos-book.github.io/tree/master/human-spaceflight/data/FARKAS_B.md",
				"marker-size": "medium",
				"marker-color": "#67c18d",
				"marker-symbol": "circle"
			}
		},{
			"type": "Feature",
			"geometry": {
				"type": "Point",
				"coordinates": [7.81494, 48.574188]
			},
			"properties": {
				"title": "FAVIER, Jean-Jacques",
				"date": "1949-04-13",
				"birthplace": "Kehl, Germany",
				"data": "https://github.com/cosmos-book/cosmos-book.github.io/tree/master/human-spaceflight/data/FAVIER_J.md",
				"marker-size": "medium",
				"marker-color": "#67c18d",
				"marker-symbol": "circle"
			}
		},{
			"type": "Feature",
			"geometry": {
				"type": "Point",
				"coordinates": [120.613121, 31.3092]
			},
			"properties": {
				"title": "FEI, Junlong",
				"date": "1966-05-05",
				"birthplace": "Suzhou, Jiangsu",
				"data": "https://github.com/cosmos-book/cosmos-book.github.io/tree/master/human-spaceflight/data/FEI_J.md",
				"marker-size": "medium",
				"marker-color": "#ffcb06",
				"marker-symbol": "circle"
			}
		},{
			"type": "Feature",
			"geometry": {
				"type": "Point",
				"coordinates": [55.794559, 44.957489]
			},
			"properties": {
				"title": "FEOKTISTOV, Konstantin Petrovich",
				"date": "1926-02-07",
				"birthplace": "Voronezh, Soviet Union",
				"data": "https://github.com/cosmos-book/cosmos-book.github.io/tree/master/human-spaceflight/data/FEOKTISTOV_KP.md",
				"marker-size": "medium",
				"marker-color": "#f04031",
				"marker-symbol": "circle"
			}
		},{
			"type": "Feature",
			"geometry": {
				"type": "Point",
				"coordinates": [-75.133957, 40.007629]
			},
			"properties": {
				"title": "FERGUSON, Christopher J.",
				"date": "1961-09-01",
				"birthplace": "Philadelphia, Pennsylvania",
				"data": "https://github.com/cosmos-book/cosmos-book.github.io/tree/master/human-spaceflight/data/FERGUSON_CJ.md",
				"marker-size": "medium",
				"marker-color": "#00a2d3",
				"marker-symbol": "circle"
			}
		},{
			"type": "Feature",
			"geometry": {
				"type": "Point",
				"coordinates": [-73.948883, 40.655071]
			},
			"properties": {
				"title": "FETTMAN, Martin J.",
				"date": "1956-12-31",
				"birthplace": "Brooklyn, New York",
				"data": "https://github.com/cosmos-book/cosmos-book.github.io/tree/master/human-spaceflight/data/FETTMAN_MJ.md",
				"marker-size": "medium",
				"marker-color": "#00a2d3",
				"marker-symbol": "circle"
			}
		},{
			"type": "Feature",
			"geometry": {
				"type": "Point",
				"coordinates": [-76.300003, 40.039799]
			},
			"properties": {
				"title": "FEUSTEL, Andrew J.",
				"date": "1965-08-25",
				"birthplace": "Lancaster, Pennsylvania",
				"data": "https://github.com/cosmos-book/cosmos-book.github.io/tree/master/human-spaceflight/data/FEUSTEL_AJ.md",
				"marker-size": "medium",
				"marker-color": "#00a2d3",
				"marker-symbol": "circle"
			}
		},{
			"type": "Feature",
			"geometry": {
				"type": "Point",
				"coordinates": [55.794559, 44.957489]
			},
			"properties": {
				"title": "FILIPCHENKO, Anatoli Vasiliyevich",
				"date": "1928-02-26",
				"birthplace": "Davydovka, USSR",
				"data": "https://github.com/cosmos-book/cosmos-book.github.io/tree/master/human-spaceflight/data/FILIPCHENKO_AV.md",
				"marker-size": "medium",
				"marker-color": "#f04031",
				"marker-symbol": "circle"
			}
		},{
			"type": "Feature",
			"geometry": {
				"type": "Point",
				"coordinates": [-79.980698, 40.431301]
			},
			"properties": {
				"title": "FINCKE, Edward Michael 'Mike'",
				"date": "1967-03-14",
				"birthplace": "Pittsburgh, Pennsylvania",
				"data": "https://github.com/cosmos-book/cosmos-book.github.io/tree/master/human-spaceflight/data/FINCKE_EM.md",
				"marker-size": "medium",
				"marker-color": "#00a2d3",
				"marker-symbol": "circle"
			}
		},{
			"type": "Feature",
			"geometry": {
				"type": "Point",
				"coordinates": [-105.138153, 39.97023]
			},
			"properties": {
				"title": "FISCHER, Jack David '2fish'",
				"date": "1974-01-23",
				"birthplace": "Louisville, Colorado",
				"data": "https://github.com/cosmos-book/cosmos-book.github.io/tree/master/human-spaceflight/data/FISCHER_JD.md",
				"marker-size": "medium",
				"marker-color": "#00a2d3",
				"marker-symbol": "circle"
			}
		},{
			"type": "Feature",
			"geometry": {
				"type": "Point",
				"coordinates": [-74.007118, 40.71455]
			},
			"properties": {
				"title": "FISHER, Anna L.",
				"date": "1949-08-24",
				"birthplace": "New York, New York",
				"data": "https://github.com/cosmos-book/cosmos-book.github.io/tree/master/human-spaceflight/data/FISHER_AL.md",
				"marker-size": "medium",
				"marker-color": "#00a2d3",
				"marker-symbol": "circle"
			}
		},{
			"type": "Feature",
			"geometry": {
				"type": "Point",
				"coordinates": [-96.79586, 32.78183]
			},
			"properties": {
				"title": "FISHER, William F.",
				"date": "1946-04-01",
				"birthplace": "Dallas, Texas",
				"data": "https://github.com/cosmos-book/cosmos-book.github.io/tree/master/human-spaceflight/data/FISHER_WF.md",
				"marker-size": "medium",
				"marker-color": "#00a2d3",
				"marker-symbol": "circle"
			}
		},{
			"type": "Feature",
			"geometry": {
				"type": "Point",
				"coordinates": [55.794559, 44.957489]
			},
			"properties": {
				"title": "FLADE, Klaus-Dietrich",
				"date": "1952-08-23",
				"birthplace": "Davydovka, USSR",
				"data": "https://github.com/cosmos-book/cosmos-book.github.io/tree/master/human-spaceflight/data/FLADE_K.md",
				"marker-size": "medium",
				"marker-color": "#67c18d",
				"marker-symbol": "circle"
			}
		},{
			"type": "Feature",
			"geometry": {
				"type": "Point",
				"coordinates": [0.00007, 53.369469]
			},
			"properties": {
				"title": "FOALE, C. Michael",
				"date": "1957-01-06",
				"birthplace": "Louth, England",
				"data": "https://github.com/cosmos-book/cosmos-book.github.io/tree/master/human-spaceflight/data/FOALE_CM.md",
				"marker-size": "medium",
				"marker-color": "#00a2d3",
				"marker-symbol": "circle"
			}
		},{
			"type": "Feature",
			"geometry": {
				"type": "Point",
				"coordinates": [-84.981277, 40.43726]
			},
			"properties": {
				"title": "FORD, Kevin A., (Ph.D.)",
				"date": "1960-07-07",
				"birthplace": "Portland, Indiana",
				"data": "https://github.com/cosmos-book/cosmos-book.github.io/tree/master/human-spaceflight/data/FORD_KA.md",
				"marker-size": "medium",
				"marker-color": "#00a2d3",
				"marker-symbol": "circle"
			}
		},{
			"type": "Feature",
			"geometry": {
				"type": "Point",
				"coordinates": [-82.985329, 39.98914]
			},
			"properties": {
				"title": "FOREMAN, Michael J.",
				"date": "1957-03-29",
				"birthplace": "Columbus, Ohio",
				"data": "https://github.com/cosmos-book/cosmos-book.github.io/tree/master/human-spaceflight/data/FOREMAN_MJ.md",
				"marker-size": "medium",
				"marker-color": "#00a2d3",
				"marker-symbol": "circle"
			}
		},{
			"type": "Feature",
			"geometry": {
				"type": "Point",
				"coordinates": [-106.437187, 31.849831]
			},
			"properties": {
				"title": "FORRESTER, Patrick G.",
				"date": "1957-03-31",
				"birthplace": "El Paso, Texas",
				"data": "https://github.com/cosmos-book/cosmos-book.github.io/tree/master/human-spaceflight/data/FORRESTER_PG.md",
				"marker-size": "medium",
				"marker-color": "#00a2d3",
				"marker-symbol": "circle"
			}
		},{
			"type": "Feature",
			"geometry": {
				"type": "Point",
				"coordinates": [-96.731277, 43.545349]
			},
			"properties": {
				"title": "FOSSUM, Michael E.",
				"date": "1957-12-19",
				"birthplace": "Sioux Falls, South Dakota",
				"data": "https://github.com/cosmos-book/cosmos-book.github.io/tree/master/human-spaceflight/data/FOSSUM_ME.md",
				"marker-size": "medium",
				"marker-color": "#00a2d3",
				"marker-symbol": "circle"
			}
		},{
			"type": "Feature",
			"geometry": {
				"type": "Point",
				"coordinates": [-79.980698, 40.431301]
			},
			"properties": {
				"title": "FRICK, Stephen N.",
				"date": "1964-09-30",
				"birthplace": "Pittsburgh, Pennsylvania",
				"data": "https://github.com/cosmos-book/cosmos-book.github.io/tree/master/human-spaceflight/data/FRICK_SN.md",
				"marker-size": "medium",
				"marker-color": "#00a2d3",
				"marker-symbol": "circle"
			}
		},{
			"type": "Feature",
			"geometry": {
				"type": "Point",
				"coordinates": [2.72639, 50.855598]
			},
			"properties": {
				"title": "FRIMOUT, Dirk Dries David Damiaan",
				"date": "1941-03-21",
				"birthplace": "Poperinge, Belgium",
				"data": "https://github.com/cosmos-book/cosmos-book.github.io/tree/master/human-spaceflight/data/FRIMOUT_DDDD.md",
				"marker-size": "medium",
				"marker-color": "#67c18d",
				"marker-symbol": "circle"
			}
		},{
			"type": "Feature",
			"geometry": {
				"type": "Point",
				"coordinates": [17.999559, 59.320381]
			},
			"properties": {
				"title": "FUGLESANG, Arne Christer",
				"date": "1957-03-18",
				"birthplace": "Stockholm, Sweden",
				"data": "https://github.com/cosmos-book/cosmos-book.github.io/tree/master/human-spaceflight/data/FUGLESANG_AC.md",
				"marker-size": "medium",
				"marker-color": "#67c18d",
				"marker-symbol": "circle"
			}
		},{
			"type": "Feature",
			"geometry": {
				"type": "Point",
				"coordinates": [-77.616402, 43.186199]
			},
			"properties": {
				"title": "FULLERTON, C. Gordon",
				"date": "1936-10-11",
				"birthplace": "Rochester, New York",
				"data": "https://github.com/cosmos-book/cosmos-book.github.io/tree/master/human-spaceflight/data/FULLERTON_CG.md",
				"marker-size": "medium",
				"marker-color": "#00a2d3",
				"marker-symbol": "circle"
			}
		},{
			"type": "Feature",
			"geometry": {
				"type": "Point",
				"coordinates": [12.06368, 47.487259]
			},
			"properties": {
				"title": "FURRER, Reinhard Alfred",
				"date": "1940-11-25",
				"birthplace": "W√∂rgl, Austria",
				"data": "https://github.com/cosmos-book/cosmos-book.github.io/tree/master/human-spaceflight/data/FURRER_RA.md",
				"marker-size": "medium",
				"marker-color": "#67c18d",
				"marker-symbol": "circle"
			}
		},{
			"type": "Feature",
			"geometry": {
				"type": "Point",
				"coordinates": [139.357513, 35.404469]
			},
			"properties": {
				"title": "FURUKAWA, Satoshi",
				"date": "1964-04-04",
				"birthplace": "Kanagawa, Japan",
				"data": "https://github.com/cosmos-book/cosmos-book.github.io/tree/master/human-spaceflight/data/FURUKAWA_S.md",
				"marker-size": "medium",
				"marker-color": "#67c18d",
				"marker-symbol": "circle"
			}
		},{
			"type": "Feature",
			"geometry": {
				"type": "Point",
				"coordinates": [-104.238647, 32.40638]
			},
			"properties": {
				"title": "GAFFNEY, F. Andrew (Drew)",
				"date": "1946-06-09",
				"birthplace": "Carlsbad, New Mexico",
				"data": "https://github.com/cosmos-book/cosmos-book.github.io/tree/master/human-spaceflight/data/GAFFNEY_FA.md",
				"marker-size": "medium",
				"marker-color": "#00a2d3",
				"marker-symbol": "circle"
			}
		},{
			"type": "Feature",
			"geometry": {
				"type": "Point",
				"coordinates": [35.043999, 55.669701]
			},
			"properties": {
				"title": "GAGARIN, Yuri Alekseyevich",
				"date": "1934-03-09",
				"birthplace": "Klushino, Russian SFSR, Soviet Union",
				"data": "https://github.com/cosmos-book/cosmos-book.github.io/tree/master/human-spaceflight/data/GAGARIN_YA.md",
				"marker-size": "medium",
				"marker-color": "#f04031",
				"marker-symbol": "circle"
			}
		},{
			"type": "Feature",
			"geometry": {
				"type": "Point",
				"coordinates": [-73.864197, 40.944401]
			},
			"properties": {
				"title": "GARAN, Ronald J., Jr.",
				"date": "1961-10-30",
				"birthplace": "Yonkers, New York",
				"data": "https://github.com/cosmos-book/cosmos-book.github.io/tree/master/human-spaceflight/data/GARAN_RJJ.md",
				"marker-size": "medium",
				"marker-color": "#00a2d3",
				"marker-symbol": "circle"
			}
		},{
			"type": "Feature",
			"geometry": {
				"type": "Point",
				"coordinates": [-94.461571, 43.644241]
			},
			"properties": {
				"title": "GARDNER, Dale A.",
				"date": "1948-11-08",
				"birthplace": "Fairmont, Minnesota",
				"data": "https://github.com/cosmos-book/cosmos-book.github.io/tree/master/human-spaceflight/data/GARDNER_DA.md",
				"marker-size": "medium",
				"marker-color": "#00a2d3",
				"marker-symbol": "circle"
			}
		},{
			"type": "Feature",
			"geometry": {
				"type": "Point",
				"coordinates": [-79.289162, 37.109169]
			},
			"properties": {
				"title": "GARDNER, Guy S.",
				"date": "1948-01-06",
				"birthplace": "Altavista, Virginia",
				"data": "https://github.com/cosmos-book/cosmos-book.github.io/tree/master/human-spaceflight/data/GARDNER_GS.md",
				"marker-size": "medium",
				"marker-color": "#00a2d3",
				"marker-symbol": "circle"
			}
		},{
			"type": "Feature",
			"geometry": {
				"type": "Point",
				"coordinates": [-71.304161, 46.837299]
			},
			"properties": {
				"title": "GARNEAU, Joseph Jean-Pierre Marc",
				"date": "1949-02-23",
				"birthplace": "Quebec City, Quebec, Canada",
				"data": "https://github.com/cosmos-book/cosmos-book.github.io/tree/master/human-spaceflight/data/GARNEAU_JJM.md",
				"marker-size": "medium",
				"marker-color": "#67c18d",
				"marker-symbol": "circle"
			}
		},{
			"type": "Feature",
			"geometry": {
				"type": "Point",
				"coordinates": [-112.084778, 38.771549]
			},
			"properties": {
				"title": "GARN, Jake",
				"date": "1932-10-12",
				"birthplace": "Richfield, Utah",
				"data": "https://github.com/cosmos-book/cosmos-book.github.io/tree/master/human-spaceflight/data/GARN_J.md",
				"marker-size": "medium",
				"marker-color": "#00a2d3",
				"marker-symbol": "circle"
			}
		},{
			"type": "Feature",
			"geometry": {
				"type": "Point",
				"coordinates": [-97.878342, 36.397228]
			},
			"properties": {
				"title": "GARRIOTT, Owen K.",
				"date": "1930-11-22",
				"birthplace": "Enid, Oklahoma",
				"data": "https://github.com/cosmos-book/cosmos-book.github.io/tree/master/human-spaceflight/data/GARRIOTT_OK.md",
				"marker-size": "medium",
				"marker-color": "#00a2d3",
				"marker-symbol": "circle"
			}
		},{
			"type": "Feature",
			"geometry": {
				"type": "Point",
				"coordinates": [0.13354, 52.19944]
			},
			"properties": {
				"title": "GARRIOTTdeCAYEUX, Richard",
				"date": "1961-07-04",
				"birthplace": "Cambridge, England, UK",
				"data": "https://github.com/cosmos-book/cosmos-book.github.io/tree/master/human-spaceflight/data/GARRIOTdeCAYEUX_R.md",
				"marker-size": "medium",
				"marker-color": "#7c52a1",
				"marker-symbol": "circle"
			}
		},{
			"type": "Feature",
			"geometry": {
				"type": "Point",
				"coordinates": [-97.397049, 42.871792]
			},
			"properties": {
				"title": "GEMAR, Charles D.",
				"date": "1955-08-04",
				"birthplace": "Yanktown, South Dakota",
				"data": "https://github.com/cosmos-book/cosmos-book.github.io/tree/master/human-spaceflight/data/GEMAR_CD.md",
				"marker-size": "medium",
				"marker-color": "#00a2d3",
				"marker-symbol": "circle"
			}
		},{
			"type": "Feature",
			"geometry": {
				"type": "Point",
				"coordinates": [-82.514801, 40.758511]
			},
			"properties": {
				"title": "GERNHARDT, Michael L.",
				"date": "1956-05-04",
				"birthplace": "Mansfield, Ohio",
				"data": "https://github.com/cosmos-book/cosmos-book.github.io/tree/master/human-spaceflight/data/GERNHARDT_ML.md",
				"marker-size": "medium",
				"marker-color": "#00a2d3",
				"marker-symbol": "circle"
			}
		},{
			"type": "Feature",
			"geometry": {
				"type": "Point",
				"coordinates": [9.68769, 49.279079]
			},
			"properties": {
				"title": "GERST, Alexander",
				"date": "1976-05-03",
				"birthplace": "K√ºnzelsau, Baden-W√ºrttemberg, Germany",
				"data": "https://github.com/cosmos-book/cosmos-book.github.io/tree/master/human-spaceflight/data/GERST_A.md",
				"marker-size": "medium",
				"marker-color": "#67c18d",
				"marker-symbol": "circle"
			}
		},{
			"type": "Feature",
			"geometry": {
				"type": "Point",
				"coordinates": [-78.875999, 42.896198]
			},
			"properties": {
				"title": "GIBSON, Edward G.",
				"date": "1936-11-08",
				"birthplace": "Buffalo, New York",
				"data": "https://github.com/cosmos-book/cosmos-book.github.io/tree/master/human-spaceflight/data/GIBSON_EG.md",
				"marker-size": "medium",
				"marker-color": "#00a2d3",
				"marker-symbol": "circle"
			}
		},{
			"type": "Feature",
			"geometry": {
				"type": "Point",
				"coordinates": [-74.930496, 42.700298]
			},
			"properties": {
				"title": "GIBSON, Robert L. 'Hoot'",
				"date": "1946-10-30",
				"birthplace": "Cooperstown, New York",
				"data": "https://github.com/cosmos-book/cosmos-book.github.io/tree/master/human-spaceflight/data/GIBSON_RL.md",
				"marker-size": "medium",
				"marker-color": "#00a2d3",
				"marker-symbol": "circle"
			}
		},{
			"type": "Feature",
			"geometry": {
				"type": "Point",
				"coordinates": [31.85714, 47.710861]
			},
			"properties": {
				"title": "GIDZENKO, Yuri Pavlovich",
				"date": "1962-03-26",
				"birthplace": "Elanets, Ukraine, Soviet Union",
				"data": "https://github.com/cosmos-book/cosmos-book.github.io/tree/master/human-spaceflight/data/GIDZENKO_YP.md",
				"marker-size": "medium",
				"marker-color": "#f04031",
				"marker-symbol": "circle"
			}
		},{
			"type": "Feature",
			"geometry": {
				"type": "Point",
				"coordinates": [37.605061, 55.741638]
			},
			"properties": {
				"title": "GLAZKOV, Yuri Nikolayevich",
				"date": "1939-10-02",
				"birthplace": "Moscow, Russia",
				"data": "https://github.com/cosmos-book/cosmos-book.github.io/tree/master/human-spaceflight/data/GLAZKOV_YN.md",
				"marker-size": "medium",
				"marker-color": "#f04031",
				"marker-symbol": "circle"
			}
		},{
			"type": "Feature",
			"geometry": {
				"type": "Point",
				"coordinates": [-81.58757, 40.023979]
			},
			"properties": {
				"title": "GLENN, John H., Jr.",
				"date": "1921-07-18",
				"birthplace": "Cambridge, Ohio",
				"data": "https://github.com/cosmos-book/cosmos-book.github.io/tree/master/human-spaceflight/data/GLENN_JHJ.md",
				"marker-size": "medium",
				"marker-color": "#00a2d3",
				"marker-symbol": "circle"
			}
		},{
			"type": "Feature",
			"geometry": {
				"type": "Point",
				"coordinates": [-89.55806, 37.309479]
			},
			"properties": {
				"title": "GODWIN, Linda M.",
				"date": "1952-07-02",
				"birthplace": "Cape Girardeau, Missouri",
				"data": "https://github.com/cosmos-book/cosmos-book.github.io/tree/master/human-spaceflight/data/GODWIN_LM.md",
				"marker-size": "medium",
				"marker-color": "#00a2d3",
				"marker-symbol": "circle"
			}
		},{
			"type": "Feature",
			"geometry": {
				"type": "Point",
				"coordinates": [-81.728531, 41.384312]
			},
			"properties": {
				"title": "GOOD, Michael T.",
				"date": "1962-10-13",
				"birthplace": "Parma, Ohio",
				"data": "https://github.com/cosmos-book/cosmos-book.github.io/tree/master/human-spaceflight/data/GOOD_MT.md",
				"marker-size": "medium",
				"marker-color": "#00a2d3",
				"marker-symbol": "circle"
			}
		},{
			"type": "Feature",
			"geometry": {
				"type": "Point",
				"coordinates": [40.82542, 45.33176]
			},
			"properties": {
				"title": "GORBATKO, Viktor Vasiliyevich",
				"date": "1934-12-03",
				"birthplace": "Ventsy-Zarya, Krasnodar Krai, Soviet Union",
				"data": "https://github.com/cosmos-book/cosmos-book.github.io/tree/master/human-spaceflight/data/GORBATKO_VV.md",
				"marker-size": "medium",
				"marker-color": "#f04031",
				"marker-symbol": "circle"
			}
		},{
			"type": "Feature",
			"geometry": {
				"type": "Point",
				"coordinates": [-122.329437, 47.603561]
			},
			"properties": {
				"title": "GORDON, Richard F., Jr.",
				"date": "1929-10-05",
				"birthplace": "Seattle, Washington",
				"data": "https://github.com/cosmos-book/cosmos-book.github.io/tree/master/human-spaceflight/data/GORDON_RFJ.md",
				"marker-size": "medium",
				"marker-color": "#00a2d3",
				"marker-symbol": "circle"
			}
		},{
			"type": "Feature",
			"geometry": {
				"type": "Point",
				"coordinates": [-93.203667, 30.20978]
			},
			"properties": {
				"title": "GORIE, Dominic L.",
				"date": "1957-05-02",
				"birthplace": "Lake Charles, Louisiana",
				"data": "https://github.com/cosmos-book/cosmos-book.github.io/tree/master/human-spaceflight/data/GORIE_DL.md",
				"marker-size": "medium",
				"marker-color": "#00a2d3",
				"marker-symbol": "circle"
			}
		},{
			"type": "Feature",
			"geometry": {
				"type": "Point",
				"coordinates": [-74.007118, 40.71455]
			},
			"properties": {
				"title": "GRABE, Ronald J.",
				"date": "1945-06-13",
				"birthplace": "New York, New York",
				"data": "https://github.com/cosmos-book/cosmos-book.github.io/tree/master/human-spaceflight/data/GRABE_RJ.md",
				"marker-size": "medium",
				"marker-color": "#00a2d3",
				"marker-symbol": "circle"
			}
		},{
			"type": "Feature",
			"geometry": {
				"type": "Point",
				"coordinates": [55.794559, 44.957489]
			},
			"properties": {
				"title": "GRECHKO, Georgi Mikhailovich",
				"date": "1931-05-25",
				"birthplace": "Leningrad, Soviet Union",
				"data": "https://github.com/cosmos-book/cosmos-book.github.io/tree/master/human-spaceflight/data/GRECHKO_GM.md",
				"marker-size": "medium",
				"marker-color": "#f04031",
				"marker-symbol": "circle"
			}
		},{
			"type": "Feature",
			"geometry": {
				"type": "Point",
				"coordinates": [-77.016251, 38.904758]
			},
			"properties": {
				"title": "GREGORY, Frederick D.",
				"date": "1941-01-07",
				"birthplace": "Washington D.C.",
				"data": "https://github.com/cosmos-book/cosmos-book.github.io/tree/master/human-spaceflight/data/GREGORY_FD.md",
				"marker-size": "medium",
				"marker-color": "#00a2d3",
				"marker-symbol": "circle"
			}
		},{
			"type": "Feature",
			"geometry": {
				"type": "Point",
				"coordinates": [-78.7006, 43.1688]
			},
			"properties": {
				"title": "GREGORY, William G.",
				"date": "1957-05-14",
				"birthplace": "Lockport, New York",
				"data": "https://github.com/cosmos-book/cosmos-book.github.io/tree/master/human-spaceflight/data/GREGORY_WG.md",
				"marker-size": "medium",
				"marker-color": "#00a2d3",
				"marker-symbol": "circle"
			}
		},{
			"type": "Feature",
			"geometry": {
				"type": "Point",
				"coordinates": [-122.650841, 45.536701]
			},
			"properties": {
				"title": "GRIGGS, S. David",
				"date": "1939-09-07",
				"birthplace": "Portland, Oregon",
				"data": "https://github.com/cosmos-book/cosmos-book.github.io/tree/master/human-spaceflight/data/GRIGGS_SD.md",
				"marker-size": "medium",
				"marker-color": "#00a2d3",
				"marker-symbol": "circle"
			}
		},{
			"type": "Feature",
			"geometry": {
				"type": "Point",
				"coordinates": [-86.474518, 38.73711]
			},
			"properties": {
				"title": "GRISSOM, Virgil Ivan 'Gus'",
				"date": "1926-04-03",
				"birthplace": "Mitchell, Indiana",
				"data": "https://github.com/cosmos-book/cosmos-book.github.io/tree/master/human-spaceflight/data/GRISSOM_VI.md",
				"marker-size": "medium",
				"marker-color": "#00a2d3",
				"marker-symbol": "circle"
			}
		},{
			"type": "Feature",
			"geometry": {
				"type": "Point",
				"coordinates": [-87.632408, 41.884151]
			},
			"properties": {
				"title": "GRUNSFELD, John M.",
				"date": "1958-10-10",
				"birthplace": "Chicago, Illinois",
				"data": "https://github.com/cosmos-book/cosmos-book.github.io/tree/master/human-spaceflight/data/GRUNSFELD_JM.md",
				"marker-size": "medium",
				"marker-color": "#00a2d3",
				"marker-symbol": "circle"
			}
		},{
			"type": "Feature",
			"geometry": {
				"type": "Point",
				"coordinates": [55.794559, 44.957489]
			},
			"properties": {
				"title": "GUBAREV, Aleksei Aleksandrovich",
				"date": "1931-03-29",
				"birthplace": "Gvardeitsi, Samara Oblast, USSR",
				"data": "https://github.com/cosmos-book/cosmos-book.github.io/tree/master/human-spaceflight/data/GUBAREV_AA.md",
				"marker-size": "medium",
				"marker-color": "#f04031",
				"marker-symbol": "circle"
			}
		},{
			"type": "Feature",
			"geometry": {
				"type": "Point",
				"coordinates": [12.4956, 41.898399]
			},
			"properties": {
				"title": "GUIDONI, Umberto",
				"date": "1954-08-18",
				"birthplace": "Rome, Italy",
				"data": "https://github.com/cosmos-book/cosmos-book.github.io/tree/master/human-spaceflight/data/GUIDONI_U.md",
				"marker-size": "medium",
				"marker-color": "#67c18d",
				"marker-symbol": "circle"
			}
		},{
			"type": "Feature",
			"geometry": {
				"type": "Point",
				"coordinates": [103.530418, 47.633709]
			},
			"properties": {
				"title": "G&Uuml;RRAGCHA, J&uuml;gderdemidiin 'Gurr'",
				"date": "1947-12-05",
				"birthplace": "Gurvanbulag, Bulgan, Mongolia",
				"data": "https://github.com/cosmos-book/cosmos-book.github.io/tree/master/human-spaceflight/data/GURRAGCHA_Z.md",
				"marker-size": "medium",
				"marker-color": "#67c18d",
				"marker-symbol": "circle"
			}
		},{
			"type": "Feature",
			"geometry": {
				"type": "Point",
				"coordinates": [-106.647179, 35.10503]
			},
			"properties": {
				"title": "GUTERREZ, Sidney M.",
				"date": "1951-06-27",
				"birthplace": "Albuquerque, New Mexico",
				"data": "https://github.com/cosmos-book/cosmos-book.github.io/tree/master/human-spaceflight/data/GUTERREZ_SM.md",
				"marker-size": "medium",
				"marker-color": "#00a2d3",
				"marker-symbol": "circle"
			}
		},{
			"type": "Feature",
			"geometry": {
				"type": "Point",
				"coordinates": [-82.387398, 42.9627]
			},
			"properties": {
				"title": "HADFIELD, Chris Austin",
				"date": "1959-08-19",
				"birthplace": "Sarnia, Ontario, Canada",
				"data": "https://github.com/cosmos-book/cosmos-book.github.io/tree/master/human-spaceflight/data/HADFIELD_CA.md",
				"marker-size": "medium",
				"marker-color": "#67c18d",
				"marker-symbol": "circle"
			}
		},{
			"type": "Feature",
			"geometry": {
				"type": "Point",
				"coordinates": [-97.63028, 39.82361]
			},
			"properties": {
				"title": "HAGUE, Tyler Nicklaus",
				"date": "1975-09-24",
				"birthplace": "Belleville, Kansas",
				"data": "https://github.com/cosmos-book/cosmos-book.github.io/tree/master/human-spaceflight/data/HAGUE_TN.md",
				"marker-size": "medium",
				"marker-color": "#00a2d3",
				"marker-symbol": "circle"
			}
		},{
			"type": "Feature",
			"geometry": {
				"type": "Point",
				"coordinates": [4.43189, 46.799278]
			},
			"properties": {
				"title": "HAIGNER√â, Claudie",
				"date": "1957-05-13",
				"birthplace": "Le Creusot, France",
				"data": "https://github.com/cosmos-book/cosmos-book.github.io/tree/master/human-spaceflight/data/HAIGNERE_C.md",
				"marker-size": "medium",
				"marker-color": "#67c18d",
				"marker-symbol": "circle"
			}
		},{
			"type": "Feature",
			"geometry": {
				"type": "Point",
				"coordinates": [2.3412, 48.85693]
			},
			"properties": {
				"title": "HAIGNER√â, Jean-Pierre",
				"date": "1948-05-19",
				"birthplace": "Paris, France",
				"data": "https://github.com/cosmos-book/cosmos-book.github.io/tree/master/human-spaceflight/data/HAIGNERE_J.md",
				"marker-size": "medium",
				"marker-color": "#67c18d",
				"marker-symbol": "circle"
			}
		},{
			"type": "Feature",
			"geometry": {
				"type": "Point",
				"coordinates": [110.988869, 35.112518]
			},
			"properties": {
				"title": "HAIPENG, Jing",
				"date": "1966-10-24",
				"birthplace": "Yuncheng city, Shanxi",
				"data": "https://github.com/cosmos-book/cosmos-book.github.io/tree/master/human-spaceflight/data/HAIPENG_J.md",
				"marker-size": "medium",
				"marker-color": "#ffcb06",
				"marker-symbol": "circle"
			}
		},{
			"type": "Feature",
			"geometry": {
				"type": "Point",
				"coordinates": [-88.896378, 30.394381]
			},
			"properties": {
				"title": "HAISE, Fred W., Jr.",
				"date": "1933-11-14",
				"birthplace": "Biloxi, Mississippi",
				"data": "https://github.com/cosmos-book/cosmos-book.github.io/tree/master/human-spaceflight/data/HAISE_FWJ.md",
				"marker-size": "medium",
				"marker-color": "#00a2d3",
				"marker-symbol": "circle"
			}
		},{
			"type": "Feature",
			"geometry": {
				"type": "Point",
				"coordinates": [-92.077103, 32.518131]
			},
			"properties": {
				"title": "HALSELL, James D., Jr.",
				"date": "1956-09-29",
				"birthplace": "Monroe, Louisiana",
				"data": "https://github.com/cosmos-book/cosmos-book.github.io/tree/master/human-spaceflight/data/HALSELL_JDJ.md",
				"marker-size": "medium",
				"marker-color": "#00a2d3",
				"marker-symbol": "circle"
			}
		},{
			"type": "Feature",
			"geometry": {
				"type": "Point",
				"coordinates": [-81.135727, 32.025311]
			},
			"properties": {
				"title": "HAMMOND, L. Brain, Jr.",
				"date": "1952-01-16",
				"birthplace": "Savannah, Georgia",
				"data": "https://github.com/cosmos-book/cosmos-book.github.io/tree/master/human-spaceflight/data/HAMMOND_LBJ.md",
				"marker-size": "medium",
				"marker-color": "#00a2d3",
				"marker-symbol": "circle"
			}
		},{
			"type": "Feature",
			"geometry": {
				"type": "Point",
				"coordinates": [-74.41568, 40.615452]
			},
			"properties": {
				"title": "HAM, Kenneth T.",
				"date": "1964-12-12",
				"birthplace": "Plainfield, New Jersey",
				"data": "https://github.com/cosmos-book/cosmos-book.github.io/tree/master/human-spaceflight/data/HAM_KT.md",
				"marker-size": "medium",
				"marker-color": "#00a2d3",
				"marker-symbol": "circle"
			}
		},{
			"type": "Feature",
			"geometry": {
				"type": "Point",
				"coordinates": [-81.69072, 41.504749]
			},
			"properties": {
				"title": "HARBAUGH, Gregory J.",
				"date": "1956-04-15",
				"birthplace": "Cleveland, Ohio",
				"data": "https://github.com/cosmos-book/cosmos-book.github.io/tree/master/human-spaceflight/data/HARBAUGH_GJ.md",
				"marker-size": "medium",
				"marker-color": "#00a2d3",
				"marker-symbol": "circle"
			}
		},{
			"type": "Feature",
			"geometry": {
				"type": "Point",
				"coordinates": [-97.343033, 31.097469]
			},
			"properties": {
				"title": "HARRIS, Bernard A., Jr.",
				"date": "1956-06-26",
				"birthplace": "Temple, Texas",
				"data": "https://github.com/cosmos-book/cosmos-book.github.io/tree/master/human-spaceflight/data/HARRIS_BAJ.md",
				"marker-size": "medium",
				"marker-color": "#00a2d3",
				"marker-symbol": "circle"
			}
		},{
			"type": "Feature",
			"geometry": {
				"type": "Point",
				"coordinates": [-86.823967, 33.531269]
			},
			"properties": {
				"title": "HARTSFIELD, Henry W., Jr.",
				"date": "1933-11-21",
				"birthplace": "Birmingham, Alabama",
				"data": "https://github.com/cosmos-book/cosmos-book.github.io/tree/master/human-spaceflight/data/HARTSFIELD_HWJ.md",
				"marker-size": "medium",
				"marker-color": "#00a2d3",
				"marker-symbol": "circle"
			}
		},{
			"type": "Feature",
			"geometry": {
				"type": "Point",
				"coordinates": [-79.980698, 40.431301]
			},
			"properties": {
				"title": "HART, Terry J.",
				"date": "1946-10-27",
				"birthplace": "Pittsburgh, Pennsylvania",
				"data": "https://github.com/cosmos-book/cosmos-book.github.io/tree/master/human-spaceflight/data/HART_TJ.md",
				"marker-size": "medium",
				"marker-color": "#00a2d3",
				"marker-symbol": "circle"
			}
		},{
			"type": "Feature",
			"geometry": {
				"type": "Point",
				"coordinates": [-118.166832, 33.797821]
			},
			"properties": {
				"title": "HAUCK, Frederick H.",
				"date": "1941-04-11",
				"birthplace": "Long Beach, California",
				"data": "https://github.com/cosmos-book/cosmos-book.github.io/tree/master/human-spaceflight/data/HAUCK_FH.md",
				"marker-size": "medium",
				"marker-color": "#00a2d3",
				"marker-symbol": "circle"
			}
		},{
			"type": "Feature",
			"geometry": {
				"type": "Point",
				"coordinates": [-95.26413, 38.600941]
			},
			"properties": {
				"title": "HAWLEY, Steven A.",
				"date": "1951-12-12",
				"birthplace": "Ottawa, Kansas",
				"data": "https://github.com/cosmos-book/cosmos-book.github.io/tree/master/human-spaceflight/data/HAWLEY_SA.md",
				"marker-size": "medium",
				"marker-color": "#00a2d3",
				"marker-symbol": "circle"
			}
		},{
			"type": "Feature",
			"geometry": {
				"type": "Point",
				"coordinates": [-80.83754, 35.2225]
			},
			"properties": {
				"title": "HELMS, Susan J.",
				"date": "1958-02-26",
				"birthplace": "Charlotte, North Carolina",
				"data": "https://github.com/cosmos-book/cosmos-book.github.io/tree/master/human-spaceflight/data/HELMS_SJ.md",
				"marker-size": "medium",
				"marker-color": "#00a2d3",
				"marker-symbol": "circle"
			}
		},{
			"type": "Feature",
			"geometry": {
				"type": "Point",
				"coordinates": [-84.548309, 41.471031]
			},
			"properties": {
				"title": "HENDRICKS, Terence T.",
				"date": "1952-07-05",
				"birthplace": "Bryan, Ohio",
				"data": "https://github.com/cosmos-book/cosmos-book.github.io/tree/master/human-spaceflight/data/HENDRICKS_TT.md",
				"marker-size": "medium",
				"marker-color": "#00a2d3",
				"marker-symbol": "circle"
			}
		},{
			"type": "Feature",
			"geometry": {
				"type": "Point",
				"coordinates": [-84.505188, 39.14127]
			},
			"properties": {
				"title": "HENIZE, Karl G.",
				"date": "1926-10-17",
				"birthplace": "Cincinnati, Ohio",
				"data": "https://github.com/cosmos-book/cosmos-book.github.io/tree/master/human-spaceflight/data/HENIZE_KG.md",
				"marker-size": "medium",
				"marker-color": "#00a2d3",
				"marker-symbol": "circle"
			}
		},{
			"type": "Feature",
			"geometry": {
				"type": "Point",
				"coordinates": [-84.156013, 31.580759]
			},
			"properties": {
				"title": "HENNEN, Thomas J. Chief Warrant Officer",
				"date": "1952-08-17",
				"birthplace": "Albany, Georgia",
				"data": "https://github.com/cosmos-book/cosmos-book.github.io/tree/master/human-spaceflight/data/HENNEN_TJCWO.md",
				"marker-size": "medium",
				"marker-color": "#00a2d3",
				"marker-symbol": "circle"
			}
		},{
			"type": "Feature",
			"geometry": {
				"type": "Point",
				"coordinates": [26.705014, 50.928462]
			},
			"properties": {
				"title": "HERMASZEWSKI, Miros≈Çaw 'Mirek'",
				"date": "1941-09-15",
				"birthplace": "Lipniki, Ukraine",
				"data": "https://github.com/cosmos-book/cosmos-book.github.io/tree/master/human-spaceflight/data/HERMASZEWSKI_M.md",
				"marker-size": "medium",
				"marker-color": "#67c18d",
				"marker-symbol": "circle"
			}
		},{
			"type": "Feature",
			"geometry": {
				"type": "Point",
				"coordinates": [-121.280273, 37.879879]
			},
			"properties": {
				"title": "HERNANDEZ, Jose M.",
				"date": "1962-08-07",
				"birthplace": "French Camp, California",
				"data": "https://github.com/cosmos-book/cosmos-book.github.io/tree/master/human-spaceflight/data/HERNANDEZ_JM.md",
				"marker-size": "medium",
				"marker-color": "#00a2d3",
				"marker-symbol": "circle"
			}
		},{
			"type": "Feature",
			"geometry": {
				"type": "Point",
				"coordinates": [-96.239029, 35.240978]
			},
			"properties": {
				"title": "HERRINGTON, John B.",
				"date": "1958-09-14",
				"birthplace": "Wetumka, Oklahoma",
				"data": "https://github.com/cosmos-book/cosmos-book.github.io/tree/master/human-spaceflight/data/HERRINGTON_JB.md",
				"marker-size": "medium",
				"marker-color": "#00a2d3",
				"marker-symbol": "circle"
			}
		},{
			"type": "Feature",
			"geometry": {
				"type": "Point",
				"coordinates": [-98.708527, 46.91008]
			},
			"properties": {
				"title": "HIEB, Richard J.",
				"date": "1955-09-21",
				"birthplace": "Jamestown, North Dakota",
				"data": "https://github.com/cosmos-book/cosmos-book.github.io/tree/master/human-spaceflight/data/HIEB_RJ.md",
				"marker-size": "medium",
				"marker-color": "#00a2d3",
				"marker-symbol": "circle"
			}
		},{
			"type": "Feature",
			"geometry": {
				"type": "Point",
				"coordinates": [-87.632408, 41.884151]
			},
			"properties": {
				"title": "HIGGINBOTHAM, Joan E.",
				"date": "1964-08-03",
				"birthplace": "Chicago, Illinois",
				"data": "https://github.com/cosmos-book/cosmos-book.github.io/tree/master/human-spaceflight/data/HIGGINBOTHAM_JE.md",
				"marker-size": "medium",
				"marker-color": "#00a2d3",
				"marker-symbol": "circle"
			}
		},{
			"type": "Feature",
			"geometry": {
				"type": "Point",
				"coordinates": [-90.192032, 41.838951]
			},
			"properties": {
				"title": "HILMERS, David O.",
				"date": "1950-01-28",
				"birthplace": "Clinton, Iowa",
				"data": "https://github.com/cosmos-book/cosmos-book.github.io/tree/master/human-spaceflight/data/HILMERS_DO.md",
				"marker-size": "medium",
				"marker-color": "#00a2d3",
				"marker-symbol": "circle"
			}
		},{
			"type": "Feature",
			"geometry": {
				"type": "Point",
				"coordinates": [-88.053238, 30.68639]
			},
			"properties": {
				"title": "HIRE, Kathryn P. 'Kay'",
				"date": "1959-08-26",
				"birthplace": "Mobile, Alabama",
				"data": "https://github.com/cosmos-book/cosmos-book.github.io/tree/master/human-spaceflight/data/HIRE_KP.md",
				"marker-size": "medium",
				"marker-color": "#00a2d3",
				"marker-symbol": "circle"
			}
		},{
			"type": "Feature",
			"geometry": {
				"type": "Point",
				"coordinates": [-68.284332, 44.389511]
			},